LOCATION_GROUP,LOCATION_TYPE,LOCATION_CODE,LOCATION,LONGITUDE,LATITUDE
Hizmet Binasi,Bina,METRO-T4 Habipler,ARNAVUTKÖY,28.843808,41.12222
Hizmet Binasi,Bina,059-Arnavutkoy Mezarliklar,ARNAVUTKÖY,28.751046,41.179543
Hizmet Binasi,Bina,001-Atasehir Darulaceze Tip Merkezi,ATAŞEHİR,29.147271,40.977937
Hizmet Binasi,Bina,001-Cobancesme Kurumsal Atik,BAHÇELİEVLER,28.825496,40.997055
Hizmet Binasi,Bina,061-Bahcelievler Yol Bakim,BAHÇELİEVLER,28.825249,40.99704
Hizmet Binasi,Bina,001-Florya Baskanlik Konutu,BAKIRKÖY,28.78744,40.975036
Hizmet Binasi,Bina,METRO-M1B Kirazli,BAĞCILAR,28.842542,41.031971
Hizmet Binasi,Bina,001-Beylikduzu Vektorler Birimi,BEYLİKDÜZÜ,28.642354,41.000244
Hizmet Binasi,Bina,001-IBB Beyoglu Sehir Planlama,BEYOĞLU,28.974385,41.03177
Hizmet Binasi,Bina,063-Esenler Belediye Binasi,ESENLER,28.867578,41.054031
Hizmet Binasi,Bina,001-Esenler Otogar Beyaz Masa,ESENLER,28.894728,41.040605
Hizmet Binasi,Bina,ISADEM-Esenler,ESENLER,28.874942,41.044544
Hizmet Binasi,Bina,METRO-M1 Esenler,ESENLER,28.886224,41.038367
Hizmet Binasi,Bina,001-IBB Eurodesk Temas Noktasi,FATİH,28.975377,41.012464
Hizmet Binasi,Bina,001-IBB Fatih Hayvan Hastanesi,FATİH,28.953686,41.016743
Hizmet Binasi,Bina,001-IBB Sarachane Genel Sekreterlik,FATİH,28.955329,41.013452
Hizmet Binasi,Bina,001-IBB Sarachane Hizmet Binasi,FATİH,28.955328,41.013451
Hizmet Binasi,Bina,001-IBB Kartal Ek Hizmet Binasi,KARTAL,29.188055,40.912915
Hizmet Binasi,Bina,001-Kartal Cevre Koruma,KARTAL,29.186798,40.912949
Hizmet Binasi,Bina,001-Kartal Ilaclama Birimi,KARTAL,29.188325,40.914345
Hizmet Binasi,Bina,ISADEM-Kartal ,KARTAL,29.167631,40.910637
Hizmet Binasi,Bina,ISTTELKOM-Kartal Depo,KARTAL,29.188725,40.908255
Hizmet Binasi,Bina,001-Seyrantepe IBB Depolari,KAĞITHANE,28.994933,41.101021
Hizmet Binasi,Bina,001-Seyrantepe Rayli Sistemler Mudurlugu,KAĞITHANE,28.993083,41.10109
Hizmet Binasi,Bina,ISKI-Genel Mudurluk,KAĞITHANE,28.963528,41.085894
Hizmet Binasi,Bina,059-Kucukcekmece Mezarliklar,KÜÇÜKÇEKMECE,28.770549,40.986965
Hizmet Binasi,Bina,001-Pendik BeyazMasa,PENDİK,29.23489,40.876219
Hizmet Binasi,Bina,001-Pendik Deniz Hizmetleri,PENDİK,29.23887,40.875228
Hizmet Binasi,Bina,ISBAK-Sariyer Tunel Birimi,SARIYER,29.026577,41.158185
Hizmet Binasi,Bina,059-Sultanbeyli Mezarliklar,SULTANBEYLİ,29.258734,40.968617
Hizmet Binasi,Bina,001-Cirpici Destek Hizmetleri,ZEYTİNBURNU,28.888033,41.000837
Hizmet Binasi,Bina,ISADEM-Zeytinburnu,ZEYTİNBURNU,28.90418,40.992576
Hizmet Binasi,Bina,059-Cekmekoy Mezarliklar,ÇEKMEKÖY,29.182762,41.043525
Hizmet Binasi,Bina,METRO-M5 Umraniye Carsi,ÜMRANİYE,29.096637,41.026438
Hizmet Binasi,Bina,METRO-M5 Uskudar,ÜSKÜDAR,29.014,41.025858
Hizmet Binasi,Bina,ISTTELKOM-Genel Mudurluk,ŞİŞLİ,28.994621,41.061808
Hizmet Binasi,Bina,061-Sisli Yol Bakim,ŞİŞLİ,28.966969,41.058538
Hizmet Binasi,Engelliler,003-Umraniye Engelliler Merkezi,ÜMRANİYE,29.124633,41.021038
Hizmet Binasi,Hal,004-Bayrampasa Hal Baskanlik,BAYRAMPAŞA,28.887653,41.051808
Hizmet Binasi,Hal,004-Fatih Kumkapi Balik Hali,FATİH,28.962793,41.002499
Hizmet Binasi,Itfaiye,007-Arnavutkoy Itfaiye,ARNAVUTKÖY,28.72888,41.201328
Hizmet Binasi,Itfaiye,007-Atasehir Kayisdagi Itfaiye,ATAŞEHİR,29.147047,40.979311
Hizmet Binasi,Itfaiye,007-Bahcelievler Kocasinan Itfaiye,BAHÇELİEVLER,28.837072,41.013993
Hizmet Binasi,Itfaiye,007-Florya Itfaiye,BAKIRKÖY,28.808223,40.963388
Hizmet Binasi,Itfaiye,007-Bayrampasa Altintepsi Itfaiye,BAYRAMPAŞA,28.896352,41.039499
Hizmet Binasi,Itfaiye,007-Bagcilar Itfaiye,BAĞCILAR,28.858637,41.050171
Hizmet Binasi,Itfaiye,007-Basaksehir Kayasehir Resneli Itfaiye,BAŞAKŞEHİR,28.741173,41.083278
Hizmet Binasi,Itfaiye,007-Beykoz Itfaiye,BEYKOZ,29.098316,41.134308
Hizmet Binasi,Itfaiye,007-Beykoz Cavusbasi Itfaiye,BEYKOZ,29.139013,41.07442
Hizmet Binasi,Itfaiye,007-Beykoz Kavacik Itfaiye,BEYKOZ,41.093551,41.093551
Hizmet Binasi,Itfaiye,007-Besiktas Itfaiye,BEŞİKTAŞ,29.019256,41.048836
Hizmet Binasi,Itfaiye,007-Buyukcekmece Kumburgaz Itfaiye,BÜYÜKÇEKMECE,28.468128,41.039792
Hizmet Binasi,Itfaiye,007-Buyukcekmece Mimar Sinan Itfaiye,BÜYÜKÇEKMECE,28.544933,41.012864
Hizmet Binasi,Itfaiye,007-Eyupsultan Aksemsettin Itfaiye,EYÜPSULTAN,28.917327,41.091811
Hizmet Binasi,Itfaiye,007-Eyupsultan Itfaiye Amirligi,EYÜPSULTAN,28.9194,41.048042
Hizmet Binasi,Itfaiye,007-Eyupsultan Kemerburgaz Itfaiye,EYÜPSULTAN,28.911409,41.157198
Hizmet Binasi,Itfaiye,007-Hasdal Afad Itfaiye,EYÜPSULTAN,28.947696,41.094413
Hizmet Binasi,Itfaiye,007-Kadikoy Itfaiye,KADIKÖY,29.033316,40.991251
Hizmet Binasi,Itfaiye,007-Kartal Yakacik Itfaiye,KARTAL,29.214861,40.943557
Hizmet Binasi,Itfaiye,007-Kagithane Itfaiye,KAĞITHANE,28.965102,41.086244
Hizmet Binasi,Itfaiye,007-Seyrantepe Itfaiye,KAĞITHANE,28.988797,41.095948
Hizmet Binasi,Itfaiye,007-Kagithane Sadabad Itfaiye,KAĞITHANE,28.955955,41.065614
Hizmet Binasi,Itfaiye,007-Maltepe Buyukbakkalkoy Itfaiye,MALTEPE,29.205994,40.972446
Hizmet Binasi,Itfaiye,007-Pendik Yenisehir Itfaiye,PENDİK,29.305208,40.940642
Hizmet Binasi,Itfaiye,007-Sancaktepe Yenidogan Itfaiye,SANCAKTEPE,29.244518,41.015628
Hizmet Binasi,Itfaiye,007-Sariyer Haciosman Itfaiye,SARIYER,29.026522,41.135922
Hizmet Binasi,Itfaiye,007-Sariyer Istinye Itfaiye,SARIYER,29.054755,41.11489
Hizmet Binasi,Itfaiye,007-Silivri Canta Itfaiye,SİLİVRİ,28.079969,41.085608
Hizmet Binasi,Itfaiye,007-Catalca Itfaiye,ÇATALCA,28.462017,41.149553
Hizmet Binasi,Itfaiye,007-Uskudar Unalan Itfaiye,ÜSKÜDAR,29.072233,41.001856
Hizmet Binasi,Itfaiye,007-Uskudar Zeynep Kamil Itfaiye,ÜSKÜDAR,29.024381,41.013839
Hizmet Binasi,PDM,PDM-Avcilar,AVCILAR,28.739611,40.977103
Hizmet Binasi,PDM,PDM-Bagcilar,BAĞCILAR,28.834522,41.028157
Hizmet Binasi,PDM,PDM-Eyup Sultan Nisanca,EYÜPSULTAN,28.930023,41.040696
Hizmet Binasi,PDM,PDM-Gaziosmanpasa,GAZİOSMANPAŞA,28.897606,41.066778
Hizmet Binasi,PDM,PDM-Umraniye,ÜMRANİYE,29.107246,41.023481
Hizmet Binasi,PDM,PDM-Uskudar,ÜSKÜDAR,29.028444,41.015376
Hizmet Binasi,PDM,PDM-Sisli,ŞİŞLİ,28.998286,41.066891
Hizmet Binasi,PTM,PDM-Beyoglu,BEYOĞLU,28.949742,41.050079
Hizmet Binasi,Zabita,009-Edirnekapi Zabita,EYÜPSULTAN,28.927929,41.027574
Hizmet Binasi,Zabita,009-Kartal Zabita,KARTAL,29.183042,40.912491
Hizmet Binasi,Zabita,009-Zeytinburnu Zabita,ZEYTİNBURNU,28.889221,41.001069
Ismek,Ismek,ISMEK-Arnavutkoy,ARNAVUTKÖY,28.739451,41.182384
Ismek,Ismek,ISMEK-Atasehir,ATAŞEHİR,9.080466,40.995478
Ismek,Ismek,ISMEK-Avcilar Parseller,AVCILAR,28.706322,40.994455
Ismek,Ismek,ISMEK-Bakirkoy Guzellik Merkezi,BAKIRKÖY,28.876283,40.995383
Ismek,Ismek,ISMEK-Bagcilar Baglar,BAĞCILAR,28.82586,41.030899
Ismek,Ismek,ISMEK-Bagcilar Yildiztepe,BAĞCILAR,28.85434,41.029452
Ismek,Ismek,ISMEK-Esenler Fatih Mahallesi,ESENLER,28.841603,41.021787
Ismek,Ismek,ISMEK-Capa,FATİH,28.932387,41.013871
Ismek,Ismek,ISMEK-Findikzade,FATİH,28.93918,41.013647
Ismek,Ismek,ISMEK-Kozyatagi,KADIKÖY,29.0967,40.974644
Ismek,Ismek,ISMEK-Rasimpasa,KADIKÖY,29.026507,40.994132
Kultur Merkezi,KulturMerkezi,012-Enver Oren Kultur Merkezi,BAHÇELİEVLER,28.818754,41.013616
Kultur Merkezi,KulturMerkezi,012-Taksim Sanat Galerisi,BEYOĞLU,28.984351,41.036582
Kultur Merkezi,KulturMerkezi,012-Adem Basturk Kultur Merkezi,ESENLER,28.884195,41.040078
Kultur Merkezi,KulturMerkezi,012-Ali Emiri Kultur Merkezi,FATİH,28.939853,41.019603
Kultur Merkezi,KulturMerkezi,013-Fatih Resat Nuri Sahnesi,FATİH,28.956106,41.015937
Kultur Merkezi,KulturMerkezi,013-Kagithane Sehir Tiyatrolari,KAĞITHANE,28.970873,41.07938
Kultur Merkezi,KulturMerkezi,012-Idris Gulluce Kultur Merkezi,TUZLA,29.30279,40.849875
Kultur Merkezi,KulturMerkezi,013-Muhsin Ertugrul Sahnesi,ŞİŞLİ,28.988714,41.046384
Kutuphane,Kutuphane,014-Baris Manco Halk ve Cocuk Kutuphanesi,ESENLER,28.873136,41.053895
Kutuphane,Kutuphane,014-Esenler Millet Bahcesi Kutuphanesi,ESENLER,28.880071,41.059893
Kutuphane,Kutuphane,014-Erdem Beyazit Kutuphanesi,EYÜPSULTAN,28.925762,41.078847
Kutuphane,Kutuphane,014-Ahmet Kabakli Kutuphanesi,FATİH,28.939788,41.019462
Kutuphane,Kutuphane,014-Ayse Hatun Tekkesi Kutuphanesi,FATİH,28.934745,41.026045
Kutuphane,Kutuphane,014-Kartal Halil Inalcik Kutuphanesi,KARTAL,29.161455,40.905838
Kutuphane,Kutuphane,014-Sefakoy Metin And Kutuphanesi,KÜÇÜKÇEKMECE,28.792729,40.997973
Kutuphane,Kutuphane,014-Sultangazi Ahmed Arif Halk Kutuphanesi,SULTANGAZİ,28.905229,41.09394
Kutuphane,Kutuphane,014-Alemdag Fatma Aliye Kutuphanesi,ÇEKMEKÖY,29.238127,41.053129
Otobus Duragi,Durak,038-Kozyatagi Otobus Duragi,KADIKÖY,29.099479,40.975596
Metrobus Duragi,Metrobus Duragi,069-Avcilar Merkez Universite Metrobus Duragi,AVCILAR,28.725085,40.984185
Metrobus Duragi,Metrobus Duragi,069-Cihangir Universite Metrobus Duragi,AVCILAR,28.713621,40.990787
Metrobus Duragi,Metrobus Duragi,069-Mustafa Kemal Pasa Metrobus Duragi,AVCILAR,28.706011,40.995149
Metrobus Duragi,Metrobus Duragi,069-Saadetdere Mahallesi Metrobus Duragi,AVCILAR,28.694133,40.99984
Metrobus Duragi,Metrobus Duragi,069-Sukrubey Metrobus Duragi,AVCILAR,28.731334,40.980361
Metrobus Duragi,Metrobus Duragi,069-Bahcelievler Metrobus Duragi,BAHÇELİEVLER,28.863467,40.995052
Metrobus Duragi,Metrobus Duragi,069-Yenibosna Metrobus Duragi,BAHÇELİEVLER,28.834646,40.992408
Metrobus Duragi,Metrobus Duragi,069-Incirli Metrobus Duragi,BAKIRKÖY,28.872508,40.997895
Metrobus Duragi,Metrobus Duragi,069-Bayrampasa Maltepe Metrobus Duragi,BAYRAMPAŞA,28.921474,41.023941
Metrobus Duragi,Metrobus Duragi,069-Beykent Hadimkoy Metrobus Duragi,BEYLİKDÜZÜ,28.631704,41.019284
Metrobus Duragi,Metrobus Duragi,069-Beylikduzu Belediye Metrobus Duragi,BEYLİKDÜZÜ,28.649426,41.012535
Metrobus Duragi,Metrobus Duragi,069-Beylikduzu Metrobus Duragi,BEYLİKDÜZÜ,28.656623,41.009845
Metrobus Duragi,Metrobus Duragi,069-Beylikduzu Tuyap Metrobus Duragi,BEYLİKDÜZÜ,28.625046,41.022027
Metrobus Duragi,Metrobus Duragi,069-Cumhuriyet Mahallesi Metrobus Duragi,BEYLİKDÜZÜ,28.640886,41.015778
Metrobus Duragi,Metrobus Duragi,069-Haramidere Metrobus Duragi,BEYLİKDÜZÜ,28.673333,41.006074
Metrobus Duragi,Metrobus Duragi,069-Halicioglu Metrobus Duragi,BEYOĞLU,28.946172,41.048676
Metrobus Duragi,Metrobus Duragi,069-Edirnekapi Metrobus Duragi,EYÜPSULTAN,28.929616,41.033459
Metrobus Duragi,Metrobus Duragi,069-Ayvansaray Metrobus Duragi,FATİH,28.937235,41.038498
Metrobus Duragi,Metrobus Duragi,069-Topkapi Metrobus Duragi,FATİH,28.91748,41.020437
Metrobus Duragi,Metrobus Duragi,069-Merter Metrobus Duragi,GÜNGÖREN,28.897702,41.007885
Metrobus Duragi,Metrobus Duragi,069-Fikirtepe Metrobus Duragi,KADIKÖY,29.047076,40.993701
Metrobus Duragi,Metrobus Duragi,069-Sogutlucesme Metrobus Duragi,KADIKÖY,29.037621,40.991664
Metrobus Duragi,Metrobus Duragi,069-Caglayan Metrobus Duragi,KAĞITHANE,28.980888,41.067502
Metrobus Duragi,Metrobus Duragi,069-Okmeydani Hastane Metrobus Duragi,KAĞITHANE,28.976454,41.067471
Metrobus Duragi,Metrobus Duragi,069-Okmeydani Metrobus Duragi,KAĞITHANE,28.96149,41.05669
Metrobus Duragi,Metrobus Duragi,069-Kucukcekmece Metrobus Duragi,KÜÇÜKÇEKMECE,28.768571,40.98623
Metrobus Duragi,Metrobus Duragi,069-Cevizlibag Metrobus Duragi,ZEYTİNBURNU,28.911086,41.016526
Metrobus Duragi,Metrobus Duragi,069-Zeytinburnu Metrobus Duragi,ZEYTİNBURNU,28.891292,41.00358
Metrobus Duragi,Metrobus Duragi,069-15 Temmuz Sehitler Koprusu Metrobus Duragi,ÜSKÜDAR,29.042553,41.036865
Metrobus Duragi,Metrobus Duragi,069-Acibadem Metrobus Duragi,ÜSKÜDAR,29.056885,41.014909
Metrobus Duragi,Metrobus Duragi,069-Altunizade Metrobus Duragi,ÜSKÜDAR,29.048627,41.021535
Metrobus Duragi,Metrobus Duragi,069-Burhaniye Metrobus Duragi,ÜSKÜDAR,29.046886,41.031935
Metrobus Duragi,Metrobus Duragi,069-Mecidiyekoy Metrobus Duragi,ŞİŞLİ,28.991766,41.066865
Metrobus Duragi,Metrobus Duragi,069-Zincirlikuyu Metrobus Duragi,ŞİŞLİ,29.012712,41.066239
Sehir Hatlari Iskelesi,Iskele,027-Beykoz Anadolu Hisari Iskelesi,BEYKOZ,29.066626,41.083229
Sehir Hatlari Iskelesi,Iskele,027-Karakoy Iskele,BEYOĞLU,28.976729,41.021744
Sehir Hatlari Iskelesi,Iskele,027-Besiktas Kadikoy Iskelesi,BEŞİKTAŞ,29.00548,41.040095
Sehir Hatlari Iskelesi,Iskele,027-Besiktas Uskudar Iskelesi,BEŞİKTAŞ,29.007688,41.04247
Sehir Hatlari Iskelesi,Iskele,027-Eminonu Bogaz Iskelesi,FATİH,28.973894,41.017585
Sehir Hatlari Iskelesi,Iskele,027-Eminonu Kadikoy Iskelesi,FATİH,28.972923,41.018207
Sehir Hatlari Iskelesi,Iskele,027-Eminonu Uskudar Iskelesi,FATİH,28.973976,41.017609
Sehir Hatlari Iskelesi,Iskele,027-Kadikoy Eminonu Iskelesi,KADIKÖY,29.02325,40.992703
Sehir Hatlari Iskelesi,Iskele,027-Uskudar Iskelesi,ÜSKÜDAR,29.014881,41.027275
Sehir Hatlari Vapuru,Sehir Hatlari Vapuru,Sehir Hatlari Ahmet Hulusi Yıldırım Vapuru,Sehir Hatlari Vapuru,0,0
Sehir Hatlari Vapuru,Sehir Hatlari Vapuru,Sehir Hatlari Baris Manco Vapuru,Sehir Hatlari Vapuru,0,0
Sehir Hatlari Vapuru,Sehir Hatlari Vapuru,Sehir Hatlari Besiktas Vapuru,Sehir Hatlari Vapuru,0,0
Sehir Hatlari Vapuru,Sehir Hatlari Vapuru,Sehir Hatlari Beykoz Vapuru,Sehir Hatlari Vapuru,0,0
Sehir Hatlari Vapuru,Sehir Hatlari Vapuru,Sehir Hatlari Beyoglu Vapuru,Sehir Hatlari Vapuru,0,0
Sehir Hatlari Vapuru,Sehir Hatlari Vapuru,Sehir Hatlari Durusu Vapuru,Sehir Hatlari Vapuru,0,0
Sehir Hatlari Vapuru,Sehir Hatlari Vapuru,Sehir Hatlari Emin Kul Vapuru,Sehir Hatlari Vapuru,0,0
Sehir Hatlari Vapuru,Sehir Hatlari Vapuru,Sehir Hatlari Fahri S. Koruturk Vapuru,Sehir Hatlari Vapuru,0,0
Sehir Hatlari Vapuru,Sehir Hatlari Vapuru,Sehir Hatlari Fatih Vapuru,Sehir Hatlari Vapuru,0,0
Sehir Hatlari Vapuru,Sehir Hatlari Vapuru,Sehir Hatlari Goksu Vapuru,Sehir Hatlari Vapuru,0,0
Sehir Hatlari Vapuru,Sehir Hatlari Vapuru,Sehir Hatlari Gumussu Vapuru,Sehir Hatlari Vapuru,0,0
Sehir Hatlari Vapuru,Sehir Hatlari Vapuru,Sehir Hatlari Haskoy Vapuru,Sehir Hatlari Vapuru,0,0
Sehir Hatlari Vapuru,Sehir Hatlari Vapuru,Sehir Hatlari Istanbul 9 Vapuru,Sehir Hatlari Vapuru,0,0
Sehir Hatlari Vapuru,Sehir Hatlari Vapuru,Sehir Hatlari Kadikoy Vapuru,Sehir Hatlari Vapuru,0,0
Sehir Hatlari Vapuru,Sehir Hatlari Vapuru,Sehir Hatlari Kucuksu Vapuru,Sehir Hatlari Vapuru,0,0
Sehir Hatlari Vapuru,Sehir Hatlari Vapuru,Sehir Hatlari Moda Vapuru,Sehir Hatlari Vapuru,0,0
Sehir Hatlari Vapuru,Sehir Hatlari Vapuru,Sehir Hatlari Mustafa Aydogdu Vapuru,Sehir Hatlari Vapuru,0,0
Sehir Hatlari Vapuru,Sehir Hatlari Vapuru,Sehir Hatlari Nurettin Alptogan Vapuru,Sehir Hatlari Vapuru,0,0
Sehir Hatlari Vapuru,Sehir Hatlari Vapuru,Sehir Hatlari Prof. Dr. Aykut Barka Vapuru,Sehir Hatlari Vapuru,0,0
Sehir Hatlari Vapuru,Sehir Hatlari Vapuru,Sehir Hatlari Prof. Dr. Fuat Sezgin Vapuru,Sehir Hatlari Vapuru,0,0
Sehir Hatlari Vapuru,Sehir Hatlari Vapuru,Sehir Hatlari Sariyer Vapuru,Sehir Hatlari Vapuru,0,0
Sehir Hatlari Vapuru,Sehir Hatlari Vapuru,Sehir Hatlari Sehit Ilker Karter Vapuru,Sehir Hatlari Vapuru,0,0
Sehir Hatlari Vapuru,Sehir Hatlari Vapuru,Sehir Hatlari Sehit Metin Sulus Vapuru,Sehir Hatlari Vapuru,0,0
Sehir Hatlari Vapuru,Sehir Hatlari Vapuru,Sehir Hatlari Sutluce Vapuru,Sehir Hatlari Vapuru,0,0
Sehir Hatlari Vapuru,Sehir Hatlari Vapuru,Sehit Hatlari Sehit Sami Akbulut Vapuru,Sehir Hatlari Vapuru,0,0
Sosyal Tesis,Sosyal,024-Florya Sosyal Tesisleri,BAKIRKÖY,28.807531,40.960245
Sosyal Tesis,Sosyal,024-Kasimpasa Sosyal Tesisleri,BEYOĞLU,28.9668,41.029852
Sosyal Tesis,Sosyal,024-Halic Sosyal Tesisleri,EYÜPSULTAN,28.957179,41.0282
Sosyal Tesis,Sosyal,024-Dragos Sosyal Tesisleri,KARTAL,29.146659,40.901284
Sosyal Tesis,Sosyal,024-Istinye Sosyal Tesisleri,SARIYER,29.054999,41.11476
Sosyal Tesis,Sosyal,024-Sultanbeyli Golet Sosyal Tesisleri,SULTANBEYLİ,29.276736,40.954095
Spor Tesisi,Spor,025-Avcilar Spor Kompleksi,AVCILAR,28.721574,40.99691
Spor Tesisi,Spor,025-Bayrampasa IBB Stadi ve Spor Tesisi,BAYRAMPAŞA,28.886847,41.064818
Spor Tesisi,Spor,025-Bayrampasa Spor Kompleksi,BAYRAMPAŞA,28.910331,41.044596
Spor Tesisi,Spor,025-IBB Beyoglu Stadi,BEYOĞLU,28.949284,41.055284
Spor Tesisi,Spor,025-Buyukcekmece Guzelce Tenis Kortu,BÜYÜKÇEKMECE,28.493941,41.0111
Spor Tesisi,Spor,025-Esenler IBB Stadi,ESENLER,28.879916,41.053893
Spor Tesisi,Spor,025-Esenler Spor Kompleksi,ESENLER,28.878994,41.053019
Spor Tesisi,Spor,025-Esenler Hakki Basar Spor Kompleksi,ESENLER,28.866389,41.04529
Spor Tesisi,Spor,025-Eyupsultan Yesilpinar Yuzme Havuzu,EYÜPSULTAN,28.925808,41.078683
Spor Tesisi,Spor,025-Fatih Spor Kompleksi,FATİH,28.93176,41.02556
Spor Tesisi,Spor,025-Yenikapi Bisiklet Dernegi,FATİH,28.940432,40.998968
Spor Tesisi,Spor,025-Yenikapi Spor Tesisleri,FATİH,28.940738,41.001423
Spor Tesisi,Spor,025-Gaziosmanpasa Barbaros Hayrettin Pasa Spor Kompleksi,GAZİOSMANPAŞA,28.898766,41.076545
Spor Tesisi,Spor,025-Bostanci Spor Tesisleri,KADIKÖY,29.08863,40.954044
Spor Tesisi,Spor,025-Kartal Hasan Dogan Spor Kompleksi,KARTAL,29.189967,40.892454
Spor Tesisi,Spor,025-Cemal Kamaci Spor Tesisleri,KAĞITHANE,28.959739,41.053278
Spor Tesisi,Spor,025-Yesilce Spor Kompleksi,KAĞITHANE,29.002046,41.094578
Spor Tesisi,Spor,025-Maltepe Spor Tesisleri,MALTEPE,29.111306,40.936238
Spor Tesisi,Spor,025-Sancaktepe Taha Akgul Spor Kompleksi,SANCAKTEPE,29.233057,40.978484
Spor Tesisi,Spor,025-Sancaktepe Yenidogan Yuzme Havuzu,SANCAKTEPE,29.245335,41.015681
Spor Tesisi,Spor,025-Sultanbeyli Golet Spor Tesisleri,SULTANBEYLİ,29.274908,40.949935
Spor Tesisi,Spor,025-Silivri Mujdat Gursu Spor Tesisleri,SİLİVRİ,28.259281,41.087402
Spor Tesisi,Spor,025-Tuzla Sahil Spor Tesisleri,TUZLA,29.310212,40.812932
Spor Tesisi,Spor,025-Dudullu Spor Tesisi,ÜMRANİYE,29.162854,41.012238
Spor Tesisi,Spor,025-Haldun Alagas Spor Salonu,ÜMRANİYE,29.104731,41.024958
Spor Tesisi,Spor,025-Umraniye Cakmak Yuzme Havuzu,ÜMRANİYE,29.124733,41.021309
Spor Tesisi,Spor,025-Umraniye Yesilvadi Spor Tesisi,ÜMRANİYE,29.127969,41.02858
Tramvay Istasyonu,Istasyon,METRO T1-BAGCILAR,BAĞCILAR,28.860657,41.03274
Tramvay Istasyonu,Istasyon,METRO T1-FINDIKLI,BEYOĞLU,28.989436,41.031482
Tramvay Istasyonu,Istasyon,METRO T1-KABATAS,BEYOĞLU,28.992646,41.034326
Tramvay Istasyonu,Istasyon,METRO T1-KARAKOY,BEYOĞLU,28.974782,41.022246
Tramvay Istasyonu,Istasyon,METRO T1-TOPHANE,BEYOĞLU,28.980616,41.026892
Tramvay Istasyonu,Istasyon,METRO T1-AKSARAY,FATİH,28.953944,41.009543
Tramvay Istasyonu,Istasyon,METRO T1-CAPA,FATİH,28.933466,41.015149
Tramvay Istasyonu,Istasyon,METRO T1-FINDIKZADE,FATİH,28.940269,41.011806
Tramvay Istasyonu,Istasyon,METRO T1-HASEKI,FATİH,28.943146,41.010955
Tramvay Istasyonu,Istasyon,METRO T1-LALELI,FATİH,28.959765,41.009561
Tramvay Istasyonu,Istasyon,METRO T1-SULTANAHMET,FATİH,28.975497,41.0081
Tramvay Istasyonu,Istasyon,METRO T1-YUSUFPASA,FATİH,28.946583,41.0101
Tramvay Istasyonu,Istasyon,METRO T1-PAZARTEKKE,FATİH,28.92684,41.018475
Tramvay Istasyonu,Istasyon,METRO T1-AKINCILAR,GÜNGÖREN,28.871113,41.017393
Tramvay Istasyonu,Istasyon,METRO T1-GUNGOREN,GÜNGÖREN,28.877219,41.015526
Tramvay Istasyonu,Istasyon,METRO T1-MERTER,GÜNGÖREN,28.88074,41.011789
Tramvay Istasyonu,Istasyon,METRO T1-YAVUZSELIM,GÜNGÖREN,28.863745,41.023715
Tramvay Istasyonu,Istasyon,METRO T1-CEVIZLIBAG,ZEYTİNBURNU,28.9119,41.016042
Tramvay Istasyonu,Istasyon,METRO T1-MITHATPASA,ZEYTİNBURNU,28.902215,41.003535
Turistik Mekan,Turistik,028-Cemberlitas Serefiye Sarnici,FATİH,28.972356,41.007284
Turistik Mekan,Turistik,028-Eminonu Misir Carsisi,FATİH,28.971066,41.016151
Turistik Mekan,Turistik,056-Emirgan Korusu Sari Kosk,SARIYER,29.053605,41.107864
Turistik Mekan,Turistik,056-Emirgan Korusu Beyaz Kosk,SARIYER,29.052953,41.109309
Yesil Alan,Koru,030-Beykoz Korusu Park ve Bahceler Sefligi,BEYKOZ,29.098574,41.133158
Yesil Alan,Koru,030-Beylikduzu Yakuplu Korusu,BEYLİKDÜZÜ,28.668433,41.005364
Yesil Alan,Koru,030-Kemerburgaz Kent Ormani,EYÜPSULTAN,28.88337,41.162284
Yesil Alan,Koru,030-Gozdagi Korusu,PENDİK,29.252024,40.891037
Yesil Alan,Koru,030-Sancaktepe Orman Parki,SANCAKTEPE,29.218902,40.975377
Yesil Alan,Koru,030-Emirgan Korusu,SARIYER,29.053011,41.108199
Yesil Alan,Koru,030-Fethipasa Korusu,ÜSKÜDAR,29.027314,41.032534
Yesil Alan,Park,031-Florya Sosyal Tesisleri Parki,BAKIRKÖY,28.807347,40.960824
Yesil Alan,Park,031-Esenler Millet Bahcesi,ESENLER,28.878257,41.06102
Yesil Alan,Park,031-Sarachane Anit Parki,FATİH,28.954114,41.015525
Yesil Alan,Park,031-Goztepe 60.Yil Parki,KADIKÖY,29.05786,40.969954
Yesil Alan,Park,031-Kucukcekmece Golu Sahili,KÜÇÜKÇEKMECE,28.767776,41.001919
Yesil Alan,Park,031-Kucukcekmece Selcuklu Parki,KÜÇÜKÇEKMECE,28.796248,41.044773
Yesil Alan,Park,031-Bogazici Imar Mudurlugu Bahce,SARIYER,29.026435,41.135165
Yesil Alan,ParkBahceler,032-Basaksehir Park ve Bahceler,BAŞAKŞEHİR,28.803974,41.108465
Yesil Alan,ParkBahceler,032-Beyoglu Park ve Bahceler,BEYOĞLU,28.993936,41.042018
Yesil Alan,ParkBahceler,032-Kumburgaz Park ve Bahceler,BÜYÜKÇEKMECE,28.467882,41.039926
Yesil Alan,ParkBahceler,032-Fatih Park ve Bahceler,FATİH,28.923518,41.02191
Yesil Alan,ParkBahceler,032-Kucukyali Park ve Bahceler,MALTEPE,29.10161,40.947455
Yesil Alan,ParkBahceler,032-Maltepe Park ve Bahceler,MALTEPE,29.12711,40.920351
Yesil Alan,ParkBahceler,032-Umraniye Park ve Bahceler,ÜMRANİYE,29.162854,41.012238
Diger,AnadoluMeydan,018-Buyukada Meydan,ADALAR,29.12765,40.874414
Diger,AnadoluMeydan,018-Beykoz Kanlica Sahil,BEYKOZ,29.065925,41.099739
Diger,AnadoluMeydan,018-Kartal Koprusu,KARTAL,29.211692,40.907168
Diger,AnadoluMeydan,018-Cekmekoy Yusuf Cebir Merkez Camii,ÇEKMEKÖY,29.228481,41.030559
Diger,AnadoluMeydan,018-Umraniye Dudullu Meydan,ÜMRANİYE,29.163593,41.01637
Diger,AnadoluMeydan,018-Camlica Tepesi,ÜSKÜDAR,29.0679,41.027407
Diger,AnadoluMeydan,018-Uskudar Harem Sahil Yolu,ÜSKÜDAR,29.011697,41.01211
Diger,AnadoluMeydan,018-Uskudar Kisikli Meydan,ÜSKÜDAR,29.063421,41.021925
Diger,AnadoluMeydan,018-Uskudar Kuleli Sahil,ÜSKÜDAR,29.052767,41.060221
Diger,AnadoluMeydan,018-Uskudar Kuzguncuk Sahilyolu,ÜSKÜDAR,29.008546,41.023753
Diger,AnadoluMeydan,018-Uskudar Salacak Sahilyolu,ÜSKÜDAR,29.008469,41.024939
Diger,AnadoluMeydan,018-Agva Sahil,ŞİLE,29.850241,41.137578
Diger,AnadoluMeydan,018-Sile Sahil,ŞİLE,29.607902,41.175735
Diger,AvrupaMeydan,018-Arnavutkoy Meydan,ARNAVUTKÖY,28.742378,41.182499
Diger,AvrupaMeydan,018-Bakirkoy Meydan,BAKIRKÖY,28.873867,40.980883
Diger,AvrupaMeydan,018-Bagcilar Meydan,BAĞCILAR,28.856627,41.034462
Diger,AvrupaMeydan,018-Basaksehir Metrokent Meydan,BAŞAKŞEHİR,28.801259,41.107504
Diger,AvrupaMeydan,018-Beyoglu Tunel Meydan,BEYOĞLU,28.977381,41.033458
Diger,AvrupaMeydan,018-Besiktas Meydan,BEŞİKTAŞ,29.007688,41.04247
Diger,AvrupaMeydan,071-M2 Metro Levent Istasyon Girisi,BEŞİKTAŞ,29.014387,41.075955
Diger,AvrupaMeydan,018-Buyukcekmece Meydan,BÜYÜKÇEKMECE,28.578171,41.020364
Diger,AvrupaMeydan,018-Eyupsultan Meydan,EYÜPSULTAN,28.932804,41.046441
Diger,AvrupaMeydan,018-Beyazit Meydan,FATİH,28.966779,41.009197
Diger,AvrupaMeydan,018-Capa Hastane Onu Caddesi,FATİH,28.932981,41.015653
Diger,AvrupaMeydan,018-Eminonu Divan Yolu,FATİH,28.974665,41.010948
Diger,AvrupaMeydan,018-Eminonu Meydan,FATİH,28.970257,41.017572
Diger,AvrupaMeydan,018-Sarachane Meydan,FATİH,28.954862,41.014324
Diger,AvrupaMeydan,018-Cemberlitas Meydan,FATİH,28.97119,41.008944
Diger,AvrupaMeydan,018-Fatih Kumkapi Balik Hali Guvenlik,FATİH,28.962793,41.002499
Diger,AvrupaMeydan,018-Fatih Vezneciler Meydan,FATİH,28.959206,41.012147
Diger,AvrupaMeydan,071-M2 Metro Halic Unkapani Istasyon Girisi,FATİH,28.963904,41.020371
Diger,AvrupaMeydan,018-Kagithane Sanayi Mahallesi,KAĞITHANE,29.005354,41.090741
Diger,AvrupaMeydan,018-Kucukcekmece Cennet Yuruyus Yolu,KÜÇÜKÇEKMECE,28.780627,40.988449
Diger,AvrupaMeydan,018-Kucukcekmece Mimar Sinan Koprusu,KÜÇÜKÇEKMECE,28.769932,40.988205
Diger,AvrupaMeydan,018-Sariyer Yenikoy Sahil,SARIYER,29.06723,41.128563
Diger,AvrupaMeydan,070-Sariyer Uskumru Koyu Meydan,SARIYER,29.022427,41.219842
Diger,AvrupaMeydan,071-M2 Metro Haciosman Istasyon Girisi,SARIYER,29.030243,41.139893
Diger,AvrupaMeydan,071-M2 Metro Itu Istasyon Girisi,SARIYER,29.020786,41.108143
Diger,AvrupaMeydan,071-M2 Metro Itu Otobus Duraklari Istasyon Girisi,SARIYER,29.020163,41.10805
Diger,AvrupaMeydan,018-Silivri Ugur Mumcu Meydani,SİLİVRİ,28.246197,41.074007
Diger,Arge,066-Deneyap Cem Karaca Kultur Merkezi,BAKIRKÖY,28.880827,40.980333
Diger,Arge,066-Deneyap Adem Basturk Kultur Merkezi,ESENLER,28.883806,41.040454
Diger,Arge,066-Deneyap Pendik Dolayoba,PENDİK,29.237803,41.053157
Diger,Arge,066-Deneyap Sariyer Kultur Merkezi,SARIYER,29.051827,41.124858
Diger,Arge,Default,İSTANBUL,0,0
Diger,Arge,EXTENDED,İSTANBUL,0,0
Diger,Arge,ISTANBUL-841,İSTANBUL,0,0
Diger,Cadde,017-Atakoy Eski Cinar Sokak,BAKIRKÖY,28.85035,40.98367
Diger,Cadde,017-Levent Akcam Caddesi,BEŞİKTAŞ,29.011161,41.085842
Diger,Cadde,017-Fatih Fevzi Pasa Caddesi,FATİH,28.951006,41.01654
Diger,Cadde,017-Sariyer Istinye Caddesi,SARIYER,29.057043,41.115098
Diger,Cadde,017-Umraniye Alemdag Caddesi,ÜMRANİYE,29.091653,41.025299
Diger,Garaj,IETT Garaj-Anadolu-In,ATAŞEHİR,29.075875,40.584511
Diger,Garaj,IETT Garaj-Anadolu-Out,ATAŞEHİR,29.075875,40.584511
Diger,Garaj,IETT Garaj-Edirnekapi-In,FATİH,28.554263,41.014308
Diger,Garaj,IETT Garaj-Ikitelli-In,KÜÇÜKÇEKMECE,28.472931,41.0331
Diger,Garaj,IETT Garaj-Ayazaga-In,ŞİŞLİ,28.584545,41.063972
Diger,Garaj,IETT Garaj-Ayazaga-Out,ŞİŞLİ,28.584545,41.063972
Diger,Kamp,029-Florya Cocuk Destek Merkezi,BAKIRKÖY,28.807947,40.96219
Diger,Kamp,029-Florya Engelliler Kampi,BAKIRKÖY,28.812574,40.960154
Diger,Kamp,029-Sile Engelliler Kampi,ŞİLE,29.471361,41.187223
Diger,KongreMerkezi,010-Sisli Istanbul Kongre Merkezi,ŞİŞLİ,28.988284,41.045555
Diger,Otel,023-Florya Lem Otel,BAKIRKÖY,28.787062,40.972466
Diger,Otel,023-Zeytinburnu Sosyal Tesisleri,ZEYTİNBURNU,28.906268,40.984978
Diger,Peron,IETT Peron-Ambarli,AVCILAR,28.420612,40.59018
Diger,Peron,IETT Peron-Tuyap,BEYLİKDÜZÜ,28.373089,41.012012
Diger,Peron,IETT Peron-Besiktas,BEŞİKTAŞ,29.002778,41.023168
Diger,Peron,IETT Peron-Kadikoy,KADIKÖY,29.012772,40.593731
Diger,Peron,IETT Peron-SogutluCesme,KADIKÖY,24.021632,40.592927
Diger,Peron,IETT Peron-Kartal-In,KARTAL,29.123026,40.542077
Diger,Peron,IETT Peron-Kartal-Out,KARTAL,29.123026,40.542077
Diger,Peron,IETT Peron-Haciosman,SARIYER,29.015078,41.082386
Diger,Peron,IETT Peron-Zincirlikuyu,ŞİŞLİ,29.004982,41.03593
Diger,Terminal,026-Esenler Otogar Guvenlik Ofisi,ESENLER,28.893607,41.040117
Diger,Terminal,026-Esenler Otogar IBB Genclik Ofisi,ESENLER,28.89344,41.039329
Diger,Terminal,026-Esenler Otogar Yonetim Binasi,ESENLER,28.893607,41.040117
Diger,Terminal,026-Esenler Otogari Istanbul Gonulluleri Ofisi,ESENLER,28.896005,41.041025
Diger,Terminal,026-Alibeykoy Cep Otogar,EYÜPSULTAN,28.944987,41.087819
Diger,Universite,063-Medeniyet Universitesi,KADIKÖY,29.063174,40.995377












































































































Hizmet Binasi,Bina,001-IBB Yenibosna BeyazMasa,BAHÇELİEVLER,28.81876,41.012851
Hizmet Binasi,Bina,001-Yenibosna Kadin Kordinasyon,BAHÇELİEVLER,28.830424,40.989982
Hizmet Binasi,Bina,001-Bayrampasa Kentsel Donusum,BAYRAMPAŞA,28.903428,41.045784
Hizmet Binasi,Bina,ISADEM-Bagcilar,BAĞCILAR,28.857501,41.0251
Hizmet Binasi,Bina,ISBAK-Piyalepasa Tunel Yonetim,BEYOĞLU,28.968634,41.054595
Hizmet Binasi,Bina,059-Buyukcekmece Mezarliklar,BÜYÜKÇEKMECE,28.646075,41.014139
Hizmet Binasi,Bina,001-Edirnekapi Ilaclama,EYÜPSULTAN,28.927331,41.029579
Hizmet Binasi,Bina,001-Edirnekapi Ruhsat Denetim,EYÜPSULTAN,28.929505,41.027026
Hizmet Binasi,Bina,ISTTELKOM-Edirnekapi Telsiz Birimi,EYÜPSULTAN,28.927548,41.030693
Hizmet Binasi,Bina,060-Edirnekapi Trafik,EYÜPSULTAN,28.928432,41.030349
Hizmet Binasi,Bina,ISADEM-Fatih,FATİH,28.939961,41.019943
Hizmet Binasi,Bina,MEDYA A.S-Genel Mudurluk,FATİH,28.957105,41.016189
Hizmet Binasi,Bina,059-Besyuzevler Mezarliklar,GAZİOSMANPAŞA,28.883214,41.074559
Hizmet Binasi,Bina,ISADEM-Gungoren,GÜNGÖREN,28.878635,41.021308
Hizmet Binasi,Bina,059-Kartal Soganlik Mezarliklar,KARTAL,29.21064,40.918029
Hizmet Binasi,Bina,060-Kartal Trafik,KARTAL,29.187576,40.911826
Hizmet Binasi,Bina,061-Kartal Yol Bakim,KARTAL,29.186078,40.912097
Hizmet Binasi,Bina,ISBAK-Kagithane Tunel Santiyesi,KAĞITHANE,28.955722,41.065794
Hizmet Binasi,Bina,ISKI-Laboratuvar Binasi,KAĞITHANE,28.967527,41.086539
Hizmet Binasi,Bina,001-Kucukcekmece TEDES Merkezi,KÜÇÜKÇEKMECE,28.800275,41.000453
Hizmet Binasi,Bina,061-Maltepe Yol Bakim,MALTEPE,29.155126,40.934629
Hizmet Binasi,Bina,061-Sariyer Yol Bakim,SARIYER,29.025047,41.155494
Hizmet Binasi,Bina,IHE-Genel Mudurluk,SULTANGAZİ,28.880016,41.107693
Hizmet Binasi,Bina,ISADEM-Sultangazi,SULTANGAZİ,28.865871,41.108496
Hizmet Binasi,Bina,059-Silivri Mezarliklar,SİLİVRİ,28.256463,41.10142
Hizmet Binasi,Bina,059-Catalca Mezarliklar,ÇATALCA,28.449979,41.148388
Hizmet Binasi,Bina,061-Catalca Yol Bakim,ÇATALCA,28.453384,41.22773
Hizmet Binasi,Bina,001-Uskudar Evde Saglik Hizmetleri,ÜSKÜDAR,29.025121,41.014092
Hizmet Binasi,Bina,ISBAK-Selimiye Santiyesi,ÜSKÜDAR,29.020501,41.008659
Hizmet Binasi,Bina,059-Zincirlikuyu Mezarliklar Daire Baskanligi,ŞİŞLİ,29.015549,41.072546
Hizmet Binasi,Engelliler,003-Beyoglu Engelliler Mudurlugu,BEYOĞLU,28.978849,41.027168
Hizmet Binasi,Hal,004-Atasehir Meyve Sebze Hali,ATAŞEHİR,29.103195,40.979795
Hizmet Binasi,Hal,004-Bayrampasa Meyve Sebze Hali,BAYRAMPAŞA,28.886832,41.048746
Hizmet Binasi,Itfaiye,007-Avcilar Itfaiye,AVCILAR,28.712969,40.993533
Hizmet Binasi,Itfaiye,007-Bakirkoy Itfaiye,BAKIRKÖY,28.881608,40.987576
Hizmet Binasi,Itfaiye,007-Bagcilar Turgut Reis Itfaiye,BAĞCILAR,28.867145,41.064624
Hizmet Binasi,Itfaiye,007-Basaksehir Itfaiye,BAŞAKŞEHİR,28.800754,41.104023
Hizmet Binasi,Itfaiye,007-Sarachane Itfaiye Baskanligi,FATİH,28.953559,41.016067
Hizmet Binasi,Itfaiye,007-Gaziosmanpasa Itfaiye,GAZİOSMANPAŞA,28.893542,41.079145
Hizmet Binasi,Itfaiye,007-Gungoren Itfaiye,GÜNGÖREN,28.888523,41.016872
Hizmet Binasi,Itfaiye,007-Tuzla Itfaiye,TUZLA,29.293924,40.857485
Hizmet Binasi,Itfaiye,007-Anadolu Yakasi Itfaiye Mudurlugu,ÜSKÜDAR,29.0116,41.019857
Hizmet Binasi,Itfaiye,007-Agva Itfaiye,ŞİLE,29.856279,41.137286
Hizmet Binasi,PDM,PDM-Bayrampasa,BAYRAMPAŞA,28.909631,41.040002
Hizmet Binasi,PDM,PDM-Kartal,KARTAL,29.161383,40.905927
Hizmet Binasi,PTM,PDM-Atasehir,ATAŞEHİR,29.084831,40.989517
Hizmet Binasi,PTM,PDM-Sirinevler,BAHÇELİEVLER,28.848458,40.992708
Hizmet Binasi,PTM,PDM-Tuzla,TUZLA,29.328323,40.869157
Hizmet Binasi,Kres,068-Arnavutkoy Yuvamiz Istanbul,ARNAVUTKÖY,28.722242,41.196518
Hizmet Binasi,Kres,068-Avcilar Yuvamiz Istanbul,AVCILAR,28.70651,41.032128
Hizmet Binasi,Kres,068-Bahcelievler Karadeniz Mahallesi Yuvamiz Istanbul,BAHÇELİEVLER,28.843919,41.00718
Hizmet Binasi,Kres,068-Bahcelievler Zafer Mahallesi Yuvamiz Istanbul,BAHÇELİEVLER,28.835238,41.003374
Hizmet Binasi,Kres,068-Yenibosna Yuvamiz Istanbul,BAHÇELİEVLER,28.830691,40.989899
Hizmet Binasi,Kres,068-Basaksehir Yuvamiz Istanbul,BAŞAKŞEHİR,28.809977,41.086826
Hizmet Binasi,Kres,068-Kayasehir Yuvamiz Istanbul,BAŞAKŞEHİR,28.764007,41.100604
Hizmet Binasi,Kres,068-Beylikduzu Yuvamiz Istanbul,BEYLİKDÜZÜ,28.646562,40.97689
Hizmet Binasi,Kres,068-Beyoglu Ornektepe Yuvamiz Istanbul,BEYOĞLU,28.951475,41.058333
Hizmet Binasi,Kres,068-Esenyurt Yuvamiz Istanbul,ESENYURT,28.635608,41.067566
Hizmet Binasi,Kres,068-Gaziosmanpasa Barbaros Hayrettinpasa Yuvamiz Istanbul,GAZİOSMANPAŞA,28.922581,41.092457
Hizmet Binasi,Kres,068-Gungoren Yuvamiz Istanbul,GÜNGÖREN,28.876773,41.028627
Hizmet Binasi,Kres,068-Kartal Yuvamiz Istanbul,KARTAL,29.192541,40.899331
Hizmet Binasi,Kres,068-Kucukcekmece Yuvamiz Istanbul,KÜÇÜKÇEKMECE,28.782957,41.021926
Hizmet Binasi,Kres,068-Pendik Suluntepe Yuvamiz Istanbul,PENDİK,29.276456,40.9069
Hizmet Binasi,Kres,068-Pendik Yuvamiz Istanbul,PENDİK,29.260852,40.89157
Hizmet Binasi,Kres,068-Sancaktepe Yuvamiz Istanbul,SANCAKTEPE,29.245345,41.016063
Hizmet Binasi,Kres,068-Sultanbeyli Yuvamiz Istanbul,SULTANBEYLİ,29.255648,40.991018
Hizmet Binasi,Kres,068-Sultangazi Yuvamiz Istanbul,SULTANGAZİ,28.875391,41.105497
Hizmet Binasi,Kres,068-Silivri Alibey Yuvamiz Istanbul,SİLİVRİ,28.257453,41.092369
Hizmet Binasi,Kres,068-Silivri Selimpasa Yuvamiz Istanbul,SİLİVRİ,28.385422,41.054046
Hizmet Binasi,Zabita,009-Bayrampasa Hal Zabita,BAYRAMPAŞA,28.887552,41.05075
Hizmet Binasi,Zabita,009-Beylikduzu Zabita,BEYLİKDÜZÜ,28.645557,41.01478
Hizmet Binasi,Zabita,009-Kartal Zabita Tedbir,KARTAL,29.188153,40.912237
Ismek,Ismek,ISMEK-Bakirkoy,BAKIRKÖY,28.877398,40.979393
Kultur Merkezi,KulturMerkezi,012-Cem Karaca Kultur Merkezi,BAKIRKÖY,28.880556,40.980471
Kultur Merkezi,KulturMerkezi,012-Basaksehir Kultur Merkezi,BAŞAKŞEHİR,28.785539,41.104782
Kultur Merkezi,KulturMerkezi,012-Esenler Kadir Topbas Kultur Merkezi,ESENLER,28.882518,41.035633
Kultur Merkezi,KulturMerkezi,012-Alibeykoy IBB Orkestralar Sube Mudurlugu,EYÜPSULTAN,28.926066,41.083861
Kultur Merkezi,KulturMerkezi,012-Avrasya Gosteri ve Sanat Merkezi,FATİH,28.943655,40.998944
Kultur Merkezi,KulturMerkezi,013-Gaziosmanpasa Sehir Sahnesi,GAZİOSMANPAŞA,28.915911,41.057453
Kultur Merkezi,KulturMerkezi,012-Erdem Beyazit Kultur Merkezi,GÜNGÖREN,28.876948,41.028597
Kultur Merkezi,KulturMerkezi,012-15 Temmuz Sehitleri Konferans Salonu,KADIKÖY,29.054201,40.999001
Kultur Merkezi,KulturMerkezi,012-Bulent Ecevit Kultur Merkezi,KARTAL,29.196328,40.886349
Kultur Merkezi,KulturMerkezi,013-Yakacik Sanatci Yasam Evi,KARTAL,29.241427,40.90507
Kultur Merkezi,KulturMerkezi,012-Yahya Kemal Beyatli Kultur Merkezi,KÜÇÜKÇEKMECE,28.80303,41.030465
Kultur Merkezi,KulturMerkezi,013-Ikitelli Sehir Tiyatrolari Kostum Depo,KÜÇÜKÇEKMECE,28.803314,41.071511
Kultur Merkezi,KulturMerkezi,012-Sancaktepe Kadir Topbas Kultur Merkezi,SANCAKTEPE,29.244969,41.014755
Kultur Merkezi,KulturMerkezi,012-Sancaktepe Eyup Sultan Kultur Merkezi,SANCAKTEPE,29.231847,40.978859
Kultur Merkezi,KulturMerkezi,012-Sariyer Kultur Merkezi,SARIYER,29.052068,41.124414
Kultur Merkezi,KulturMerkezi,012-Necmettin Erbakan Kultur Merkezi,SULTANBEYLİ,29.258629,40.970989
Kultur Merkezi,KulturMerkezi,KULTUR AS-Genel Mudurluk,ZEYTİNBURNU,28.921655,41.022063
Kultur Merkezi,KulturMerkezi,013-Umraniye Sehir Tiyatrolari,ÜMRANİYE,29.105037,41.025556
Kultur Merkezi,KulturMerkezi,012-Sehit Kaymakam Muhammed Fatih Safiturk Kultur Merkezi,ÜMRANİYE,29.105734,41.017041
Kultur Merkezi,KulturMerkezi,013-Kerem Yilmazer Sahnesi,ÜSKÜDAR,29.023764,41.017019
Kultur Merkezi,KulturMerkezi,012-Sile Kultur Merkezi,ŞİLE,29.615414,41.17239
Kultur Merkezi,KulturMerkezi,011-Sisli CRR Konser Salonu,ŞİŞLİ,28.990258,41.048207
Kultur Merkezi,KulturMerkezi,011-Harbiye Cemil Topuzlu Acik Hava Sahnesi,ŞİŞLİ,28.990026,41.046045
Kutuphane,Kutuphane,014-Rasim Ozden Oren Kutuphanesi,BAŞAKŞEHİR,28.785541,41.104436
Kutuphane,Kutuphane,014-Haci Bektasi Veli Kutuphanesi,SULTANGAZİ,28.876527,41.098069
Otobus Duragi,Durak,038-Beylikduzu Otobus Duragi,BEYLİKDÜZÜ,28.657735,41.008841
Otobus Duragi,Durak,038-Bostanci Koprusu Otobus Duragi,KADIKÖY,29.1044,40.96544
Otobus Duragi,Durak,038-Zeytinburnu Otobus Duragi,ZEYTİNBURNU,28.890811,41.002993
Sosyal Tesis,Sosyal,024-Deniz Koskleri Sosyal Tesisleri,AVCILAR,28.74292,40.973972
Sosyal Tesis,Sosyal,024-Cihangir Sosyal Tesisleri,BEYOĞLU,28.982257,41.028379
Sosyal Tesis,Sosyal,024-Kucukcekmece Sosyal Tesisleri,KÜÇÜKÇEKMECE,28.765303,40.9999
Sosyal Tesis,Sosyal,024-Safa Tepesi Sosyal Tesisleri,SANCAKTEPE,29.254914,41.013775
Sosyal Tesis,Sosyal,024-Cirpici 1453 Sosyal Tesisleri,ZEYTİNBURNU,28.891461,41.000342
Sosyal Tesis,Sosyal,024-Camlica Sosyal Tesisleri,ÜSKÜDAR,29.069071,41.027853
Sosyal Tesis,Sosyal,024-Fethipasa Sosyal Tesisleri,ÜSKÜDAR,29.026143,41.032534
Spor Tesisi,Spor,025-Bahcelievler Spor Kompleksi,BAHÇELİEVLER,28.880413,41.002171
Spor Tesisi,Spor,025-Atakoy Sinan Erdem Spor Salonu,BAKIRKÖY,28.853506,40.988493
Spor Tesisi,Spor,025-Hidayet Turkoglu Spor Tesisi,BAYRAMPAŞA,28.884133,41.065358
Spor Tesisi,Spor,025-Beykoz Spor Kompleksi,BEYKOZ,29.100534,41.125255
Spor Tesisi,Spor,025-Edirnekapi Spor Tesisi,EYÜPSULTAN,28.936885,41.032583
Spor Tesisi,Spor,025-Halkali Yuzme Havuzu,KÜÇÜKÇEKMECE,28.799341,41.044949
Spor Tesisi,Spor,025-Tarabya Metin Oktay Spor Tesisi,SARIYER,29.049423,41.128394
Spor Tesisi,Spor,025-Cebeci Spor Kompleksi,SULTANGAZİ,28.876316,41.107116
Spor Tesisi,Spor,025-Hamza Yerlikaya Spor Kompleksi,SULTANGAZİ,28.870156,41.08674
Spor Tesisi,Spor,025-Cirpici Spor Tesisi,ZEYTİNBURNU,28.891048,40.999572
Spor Tesisi,Spor,025-Sile Spor Kompleksi,ŞİLE,29.588511,41.155046
Turistik Mekan,Turistik,015-Asiyan Muzesi,BEŞİKTAŞ,29.053861,41.082512
Turistik Mekan,Turistik,056-Pierre Loti Tepesi,EYÜPSULTAN,28.932578,41.053734
Turistik Mekan,Turistik,056-BELTUR Miniaturk Kafe,SARIYER,28.948646,41.058578
Turistik Mekan,Turistik,015-Sisli Ataturk Muzesi,ŞİŞLİ,28.987136,41.056428
Yesil Alan,Koru,030-Beykoz Hidiv Kasri Korusu,BEYKOZ,29.073978,41.104805
Yesil Alan,Koru,030-Yildiz Korusu,BEŞİKTAŞ,29.015456,41.049054
Yesil Alan,Park,031-Bakirkoy Baruthane Millet Bahcesi,BAKIRKÖY,28.858946,40.975509
Yesil Alan,Park,031-Gurpinar Piri Reis Parki,BEYLİKDÜZÜ,28.59777,40.992707
Yesil Alan,Park,031-Karakoy Sahil Parki,BEYOĞLU,28.969007,41.023967
Yesil Alan,Park,031-Fatih Kumkapi Sahil Parki,FATİH,28.925951,40.990482
Yesil Alan,Park,031-Fatih Uluslararasi Baris Parki,FATİH,28.919307,40.988982
Yesil Alan,Park,031-Yenikapi Sehir Parki,FATİH,28.964481,41.002676
Yesil Alan,Park,031-Cadde Bostan Dalyan Parki,KADIKÖY,29.053326,40.967629
Yesil Alan,Park,031-Kartal Cecenistan Parki,KARTAL,29.187151,40.888024
Yesil Alan,Park,031-Halkali Camlik Parki,KÜÇÜKÇEKMECE,28.790541,41.031728
Yesil Alan,Park,031-Halkali Nurettin Sen Parki,KÜÇÜKÇEKMECE,28.783597,41.035524
Yesil Alan,Park,031-Kucukcekmece Bezirganbahce Parki,KÜÇÜKÇEKMECE,28.77561,41.029331
Yesil Alan,Park,031-Kucukcekmece Tastepe Ataturk Parki,KÜÇÜKÇEKMECE,28.772177,41.022156
Yesil Alan,Park,031-Maltepe Orhangazi Sehir Parki,MALTEPE,29.121198,40.924531
Yesil Alan,Park,031-Maltepe Pendik Sahil Seridi,MALTEPE,29.256022,40.868536
Yesil Alan,Park,031-Kurtkoy Dedepasa Parki,PENDİK,29.311377,40.938979
Yesil Alan,Park,031-Pendik Meydan Parki,PENDİK,29.23499,40.875823
Yesil Alan,Park,031-Safa Tepesi Park ve Bahceler Parki,SANCAKTEPE,29.254897,41.012137
Yesil Alan,Park,031-Sancaktepe Trafik Egitim Parki,SANCAKTEPE,29.237764,40.995229
Yesil Alan,Park,031-Caglayan Abide-i Hurriyet Parki,SARIYER,28.981998,41.068341
Yesil Alan,Park,031-Sariyer Haciosman Ataturk Kent Ormani,SARIYER,29.03309,41.134178
Yesil Alan,Park,031-Topkapi Trafik Egitim Parki,ZEYTİNBURNU,28.922887,41.021059
Yesil Alan,Park,031-Umraniye Millet Bahcesi,ÜMRANİYE,29.118248,41.040737
Yesil Alan,Park,031-Uskudar Cengelkoy Havuzbasi Parki,ÜSKÜDAR,29.05374,41.046596
Yesil Alan,ParkBahceler,032-Yildiz Korusu Park ve Bahceler,BEŞİKTAŞ,29.015585,41.046605
Yesil Alan,ParkBahceler,032-Eminonu Park ve Bahceler,FATİH,28.98077,41.014188
Yesil Alan,ParkBahceler,032-Kagithane Park ve Bahceler,KAĞITHANE,28.955561,41.065596
Yesil Alan,ParkBahceler,032-Safa Tepesi Park ve Bahceler,SANCAKTEPE,29.254707,41.012189
Yesil Alan,ParkBahceler,032-Cirpici Park ve Bahceler,ZEYTİNBURNU,28.887425,41.001016
Diger,AnadoluMeydan,018-Kartal Meydan,KARTAL,29.189346,40.88982
Diger,AnadoluMeydan,018-Pendik Marmara Hastane Onu,PENDİK,29.261779,40.886947
Diger,AnadoluMeydan,018-Sultanbeyli Meydan,SULTANBEYLİ,29.266654,40.96714
Diger,AnadoluMeydan,018-Cekmekoy Meydan,ÇEKMEKÖY,29.190271,41.014079
Diger,AnadoluMeydan,018-Uskudar Meydan,ÜSKÜDAR,29.014881,41.027275
Diger,AvrupaMeydan,018-Florya Sahil,BAKIRKÖY,28.80068,40.963136
Diger,AvrupaMeydan,018-Taksim Meydan,BEYOĞLU,28.985666,41.037058
Diger,AvrupaMeydan,018-Edirnekapi Sehitlik,EYÜPSULTAN,28.92817,41.033684
Diger,AvrupaMeydan,018-Aksaray Meydan,FATİH,28.949292,41.011242
Diger,AvrupaMeydan,018-Gaziosmanpasa Meydan,GAZİOSMANPAŞA,28.913608,41.058146
Diger,AvrupaMeydan,018-Kucukcekmece Etkinlik Alani,KÜÇÜKÇEKMECE,28.793358,41.008056
Diger,AvrupaMeydan,018-Kucukcekmece Meydan,KÜÇÜKÇEKMECE,28.77166,40.990604
Diger,AvrupaMeydan,018-Mecidiyekoy Meydan,ŞİŞLİ,28.992465,41.064094
Diger,Arge,066-Deneyap Ali Emiri Kultur Merkezi,FATİH,28.939853,41.019603
Diger,Arge,066-Deneyap Erdem Beyazit Kultur Merkezi,GÜNGÖREN,28.877215,41.028642
Diger,Arge,066-Deneyap Idris Gulluce Kultur Merkezi,TUZLA,29.302613,40.849826
Diger,Cadde,017-Sirinevler Mahmutbey Caddesi,BAHÇELİEVLER,28.842888,40.994098
Diger,Cadde,017-Levent Akasyali Sokak,BEŞİKTAŞ,29.009866,41.087364
Diger,Cadde,017-Zeytinburnu 29.Sokak,ZEYTİNBURNU,28.896656,40.985878
Diger,Garaj,IETT Garaj-Edirnekapi-Cam,FATİH,28.554263,41.014308
Diger,Garaj,IETT Garaj-Hasanpasa-In,KADIKÖY,29.023146,40.594177
Diger,Garaj,IETT Garaj-Hasanpasa-Out,KADIKÖY,29.023146,40.594177
Diger,Garaj,IETT Garaj-Kagithane-Out,KAĞITHANE,28.573054,41.03566
Diger,Garaj,IETT Garaj-Ikitelli-Out,KÜÇÜKÇEKMECE,28.472931,41.0331
Diger,Kamp,029-Marmaracik Yaz Kampi,SARIYER,29.090822,41.243239
Diger,Otel,023-Florya Gunes Otel,BAKIRKÖY,28.788649,40.971917
Diger,Peron,IETT Peron-Yenibosna-Out,BAHÇELİEVLER,28.501286,40.595614
Diger,Peron,IETT Peron-Kayabasi,BAŞAKŞEHİR,28.445424,41.064146
Diger,Peron,IETT Peron-Levent,BEŞİKTAŞ,29.003277,41.052214
Diger,Peron,IETT Peron-Eminonu-Mesh,FATİH,28.581074,41.010892
Diger,Peron,IETT Peron-Pendik,PENDİK,29.143841,40.522655
Diger,Peron,IETT Peron-Yenidogan_Out,SANCAKTEPE,29.151563,41.001865
Diger,Peron,IETT Peron-Sultanbeyli,SULTANBEYLİ,29.175156,40.561725
Diger,Peron,IETT Peron-Uskudar,ÜSKÜDAR,29.074823,41.012278
Diger,Peron,IETT Peron-Mecidiyekoy-Out,ŞİŞLİ,28.59289,41.035982
Diger,Universite,063-Istanbul Universitesi Avcilar Kampusu,AVCILAR,28.727285,40.98714
Diger,Universite,063-Istanbul Universitesi Saglik Bilimleri,BAKIRKÖY,28.863824,40.986566
Diger,Universite,063-Medipol Universitesi,BEYKOZ,29.093024,41.09064



















































































































































































































































































































































































































































































































































































































































































































































































































































































































































































































































































































































































































































































































































































































































































































































































































































Hizmet Binasi,Bina,001-Buyukada Destek Hizmetleri Mudurlugu,ADALAR,29.128779,40.874148
Hizmet Binasi,Bina,ISKI-Arnavutkoy,ARNAVUTKÖY,28.728392,41.200606
Hizmet Binasi,Bina,061-Arnavutkoy Yol Bakim,ARNAVUTKÖY,28.760621,41.171197
Hizmet Binasi,Bina,001-Atasehir Kayisdagi Darulaceze,ATAŞEHİR,29.148301,40.978116
Hizmet Binasi,Bina,ISKI-Avcilar,AVCILAR,28.730355,40.979373
Hizmet Binasi,Bina,001-Bahcelievler Cevre Koruma,BAHÇELİEVLER,28.826538,40.997714
Hizmet Binasi,Bina,ISKI-Bahcelievler,BAHÇELİEVLER,28.864447,41.012313
Hizmet Binasi,Bina,001-Bahcelievler Istihdam Ofisi,BAHÇELİEVLER,28.843902,41.007323
Hizmet Binasi,Bina,ISADEM-Bahcelievler,BAHÇELİEVLER,28.829498,41.01411
Hizmet Binasi,Bina,ISKI-Bakirkoy,BAKIRKÖY,28.871312,40.980678
Hizmet Binasi,Bina,001-Bakirkoy Toplu Ulasim Hizmetleri Mudurlugu,BAKIRKÖY,28.884941,40.999315
Hizmet Binasi,Bina,001-Florya Baskanlik Yerleskesi,BAKIRKÖY,28.78744,40.975036
Hizmet Binasi,Bina,001-IBB Bakirkoy Ek Hizmet Binasi,BAKIRKÖY,28.884828,40.999602
Hizmet Binasi,Bina,001-IBB Bakirkoy Ek Hizmet Garaj Amirligi,BAKIRKÖY,28.884938,40.999685
Hizmet Binasi,Bina,001-Istanbul Planlama Ajansi Florya 1.Konut,BAKIRKÖY,28.786616,40.975927
Hizmet Binasi,Bina,001-Istanbul Planlama Ajansi Florya 10.Konut,BAKIRKÖY,28.785459,40.975204
Hizmet Binasi,Bina,001-Istanbul Planlama Ajansi Florya 11.Konut,BAKIRKÖY,28.785459,40.975204
Hizmet Binasi,Bina,001-Istanbul Planlama Ajansi Florya 2.Konut,BAKIRKÖY,28.786355,40.975974
Hizmet Binasi,Bina,001-Istanbul Planlama Ajansi Florya 3.Konut,BAKIRKÖY,28.786343,40.975916
Hizmet Binasi,Bina,001-Istanbul Planlama Ajansi Florya 4.Konut,BAKIRKÖY,28.785872,40.975523
Hizmet Binasi,Bina,001-Istanbul Planlama Ajansi Florya 5.Konut,BAKIRKÖY,28.786378,40.975548
Hizmet Binasi,Bina,001-Istanbul Planlama Ajansi Florya 6.Konut,BAKIRKÖY,28.786329,40.975294
Hizmet Binasi,Bina,001-Istanbul Planlama Ajansi Florya 8.Konut,BAKIRKÖY,28.785872,40.975523
Hizmet Binasi,Bina,001-Istanbul Planlama Ajansi Florya 9.Konut,BAKIRKÖY,28.786329,40.975294
Hizmet Binasi,Bina,ISADEM-Bakirkoy,BAKIRKÖY,28.87776,40.982753
Hizmet Binasi,Bina,001-Bayrampasa Aydinlatma Mudurlugu,BAYRAMPAŞA,28.889769,41.05908
Hizmet Binasi,Bina,ISADEM-Bayrampasa ,BAYRAMPAŞA,28.909746,41.040004
Hizmet Binasi,Bina,ISKI-Bayrampasa,BAYRAMPAŞA,28.884781,41.074047
Hizmet Binasi,Bina,001-Bayrampasa Istihdam Ofisi,BAYRAMPAŞA,28.903163,41.045655
Hizmet Binasi,Bina,059-Bayrampasa Mezarliklar,BAYRAMPAŞA,28.892295,41.037809
Hizmet Binasi,Bina,ISKI-Bagcilar,BAĞCILAR,28.841352,41.038468
Hizmet Binasi,Bina,001-Bagcilar Istihdam Ofisi,BAĞCILAR,28.869792,41.033293
Hizmet Binasi,Bina,001-Basaksehir Data Center,BAŞAKŞEHİR,28.801311,41.107
Hizmet Binasi,Bina,ISADEM-Basaksehir,BAŞAKŞEHİR,28.753078,41.069591
Hizmet Binasi,Bina,ISKI-Basaksehir,BAŞAKŞEHİR,28.748396,41.072453
Hizmet Binasi,Bina,METRO-M3 Olimpiyat,BAŞAKŞEHİR,28.75968,41.082419
Hizmet Binasi,Bina,001-Basaksehir Ozgem,BAŞAKŞEHİR,28.770304,41.106547
Hizmet Binasi,Bina,001-Basaksehir Resneli Vektorlerle Mucadele Birimi,BAŞAKŞEHİR,28.739847,41.087124
Hizmet Binasi,Bina,001-IBB Ikitelli Insan Kaynaklari Arsiv Depo,BAŞAKŞEHİR,28.800748,41.074075
Hizmet Binasi,Bina,001-Ikitelli IBB Arsivi,BAŞAKŞEHİR,28.800748,41.074075
Hizmet Binasi,Bina,ISKI-Ikitelli_Aritma,BAŞAKŞEHİR,28.764997,41.088544
Hizmet Binasi,Bina,ISKI-Beykoz,BEYKOZ,29.088938,41.108121
Hizmet Binasi,Bina,ISKI-Beylikduzu,BEYLİKDÜZÜ,28.638586,41.018473
Hizmet Binasi,Bina,061-Beylikduzu Yol Bakim,BEYLİKDÜZÜ,28.62075,41.035093
Hizmet Binasi,Bina,061-Beylikduzu 6.Bolge Yol Bakim,BEYLİKDÜZÜ,28.620911,41.036651
Hizmet Binasi,Bina,001-IBB Kasimpasa Ek Hizmet Binasi,BEYOĞLU,28.971601,41.039638
Hizmet Binasi,Bina,IETT GM-Beyoglu,BEYOĞLU,28.582721,41.014183
Hizmet Binasi,Bina,IETT GM-Gumussuyu-In,BEYOĞLU,28.592987,41.022014
Hizmet Binasi,Bina,IETT GM-Karakoy,BEYOĞLU,28.582663,41.012263
Hizmet Binasi,Bina,ISKI-Beyoglu,BEYOĞLU,28.976831,41.051604
Hizmet Binasi,Bina,001-Beyoglu IBB Zemin Istanbul,BEYOĞLU,28.97494,41.028665
Hizmet Binasi,Bina,001-Beyoglu Ornektepe Genclik Merkezi,BEYOĞLU,28.951475,41.058333
Hizmet Binasi,Bina,001-Beyoglu Sutluce Iletisim Koordinasyon,BEYOĞLU,28.948581,41.057966
Hizmet Binasi,Bina,001-Taksim Beyaz Masa,BEYOĞLU,28.985969,41.036929
Hizmet Binasi,Bina,068-Beyoglu Ornektepe Mahalle Evi,BEYOĞLU,28.951461,41.058287
Hizmet Binasi,Bina,ISKI-Besiktas,BEŞİKTAŞ,29.028619,41.111566
Hizmet Binasi,Bina,001-Besiktas Kadin Koordinasyon Merkezi,BEŞİKTAŞ,29.007671,41.059831
Hizmet Binasi,Bina,001-Besiktas Kent Gonulluleri,BEŞİKTAŞ,29.00736,41.041218
Hizmet Binasi,Bina,001-Buyukcekmece Istihdam Ofisi,BÜYÜKÇEKMECE,28.587816,41.023107
Hizmet Binasi,Bina,ISKI-Esenler,ESENLER,28.878959,41.043027
Hizmet Binasi,Bina,METRO-M1B Ucyuzlu,ESENLER,28.871439,41.037033
Hizmet Binasi,Bina,ISBAK-Menderes ESM Ofis,ESENLER,28.878733,41.042755
Hizmet Binasi,Bina,ISKI-Esenyurt,ESENYURT,28.685638,41.024699
Hizmet Binasi,Bina,METRO-M4 Esenkent,ESENYURT,29.16611,40.920918
Hizmet Binasi,Bina,001-IBB Esenyurt Evsizler Birimi,ESENYURT,28.631191,41.03404
Hizmet Binasi,Bina,001-Alibeykoy Lojistik Destek,EYÜPSULTAN,28.922776,41.092558
Hizmet Binasi,Bina,001-Edirnekapi Atik Yonetim,EYÜPSULTAN,28.929429,41.030132
Hizmet Binasi,Bina,001-Edirnekapi Evde Saglik,EYÜPSULTAN,28.927841,41.029811
Hizmet Binasi,Bina,001-Edirnekapi Sosyal Yardim,EYÜPSULTAN,28.930938,41.02949
Hizmet Binasi,Bina,IGDAS,EYÜPSULTAN,28.944687,41.070979
Hizmet Binasi,Bina,ISKI-Edirnekapi,EYÜPSULTAN,28.936568,41.031277
Hizmet Binasi,Bina,METRO-M7 Alibeykoy,EYÜPSULTAN,28.955268,41.084102
Hizmet Binasi,Bina,059-Edirnekapi Mezarliklar,EYÜPSULTAN,28.929976,41.02716
Hizmet Binasi,Bina,060-Alibeykoy Trafik Santiyesi,EYÜPSULTAN,28.931899,41.089498
Hizmet Binasi,Bina,061-Edirnekapi Yol Bakim,EYÜPSULTAN,28.931995,41.028811
Hizmet Binasi,Bina,001-Alibeykoy Gasilhane,EYÜPSULTAN,28.945617,41.074798
Hizmet Binasi,Bina,001-Eyupsultan Cevre Koruma,EYÜPSULTAN,28.946104,41.057928
Hizmet Binasi,Bina,001-Eyupsultan Deniz Hizmetleri,EYÜPSULTAN,28.945561,41.058543
Hizmet Binasi,Bina,ISADEM-Eyupsultan,EYÜPSULTAN,28.929196,41.049926
Hizmet Binasi,Bina,ISKI-Eyupsultan,EYÜPSULTAN,28.928305,41.037643
Hizmet Binasi,Bina,001-Aksaray BeyazMasa,FATİH,28.949188,41.011659
Hizmet Binasi,Bina,001-Cemberlitas UCLG-MEWA,FATİH,28.978365,41.008506
Hizmet Binasi,Bina,001-Sultanahmet Baskanlik Konutu,FATİH,28.977749,41.003933
Hizmet Binasi,Bina,001-Yenikapi Deniz Isletmesi,FATİH,28.953072,41.000195
Hizmet Binasi,Bina,METRO-M2 Yenikapi,FATİH,28.951448,41.005764
Hizmet Binasi,Bina,METRO-T1 Pazartekke,FATİH,28.92923,41.016912
Hizmet Binasi,Bina,001-Fatih Deprem Zemin Mudurlugu,FATİH,28.955217,41.011547
Hizmet Binasi,Bina,001-Fatih KUDEB,FATİH,28.960644,41.014821
Hizmet Binasi,Bina,001-Fatih Sehzadebasi Tip Merkezi,FATİH,28.956482,41.016269
Hizmet Binasi,Bina,001-IBB Sarachane Basin,FATİH,28.955328,41.013451
Hizmet Binasi,Bina,001-Istanbul Kent Konseyi,FATİH,28.956854,41.013148
Hizmet Binasi,Bina,067-Bezmialem Hastanesi,FATİH,28.933733,41.019716
Hizmet Binasi,Bina,068-Fatih Sulukule Mahalle Evi,FATİH,28.939875,41.019996
Hizmet Binasi,Bina,ISKI-Gaziosmanpasa,GAZİOSMANPAŞA,28.917074,41.057631
Hizmet Binasi,Bina,061-Gaziosmanpasa Yol Bakim,GAZİOSMANPAŞA,28.918359,41.091974
Hizmet Binasi,Bina,ISADEM-Gaziosmanpasa,GAZİOSMANPAŞA,28.90342,41.072763
Hizmet Binasi,Bina,ISKI-Gungoren,GÜNGÖREN,28.89214,41.01649
Hizmet Binasi,Bina,001-Gungoren Tozkoparan Tip Merkezi,GÜNGÖREN,28.892469,41.014928
Hizmet Binasi,Bina,001-Anadolu Yakasi Park ve Bahceler Mudurlugu,KADIKÖY,29.057882,40.970888
Hizmet Binasi,Bina,ISKI-Kadikoy,KADIKÖY,29.021163,40.986759
Hizmet Binasi,Bina,001-Kadikoy Vektorler Ile Mucadele Birimi,KADIKÖY,29.109254,40.958388
Hizmet Binasi,Bina,001-IBB Kartal Lojistik Depolari,KARTAL,29.189548,40.907964
Hizmet Binasi,Bina,001-Kartal Evde Saglik Hizmetleri,KARTAL,29.188714,40.916355
Hizmet Binasi,Bina,001-Kartal Makine Ikmal,KARTAL,29.186784,40.913538
Hizmet Binasi,Bina,ISKI-Kartal,KARTAL,29.194198,40.912743
Hizmet Binasi,Bina,001-Kartal Belediyesi Yasli Bakim ve Huzurevi,KARTAL,29.240697,40.90681
Hizmet Binasi,Bina,001-Kartal Soganlik Isg Mudurlugu,KARTAL,29.210479,40.918079
Hizmet Binasi,Bina,061-Kartal Omerli Yol Bakim,KARTAL,29.338858,41.077425
Hizmet Binasi,Bina,001-AKOM,KAĞITHANE,28.962646,41.086932
Hizmet Binasi,Bina,ISKI-Icdenetim,KAĞITHANE,28.964936,41.087737
Hizmet Binasi,Bina,ISKI-Kagithane,KAĞITHANE,28.982117,41.085679
Hizmet Binasi,Bina,ISKI-Lojman,KAĞITHANE,29.044416,41.083485
Hizmet Binasi,Bina,METRO-M2 Seyrantepe,KAĞITHANE,28.994205,41.101197
Hizmet Binasi,Bina,001-Silivrikapi Acil Yardim Ve Cankurtarma Mudurlugu,KAĞITHANE,28.922037,41.004253
Hizmet Binasi,Bina,ISBAK-Kucukcekmece Santiyesi,KÜÇÜKÇEKMECE,28.768332,40.987088
Hizmet Binasi,Bina,ISKI-Kucukcekmece,KÜÇÜKÇEKMECE,28.779952,41.002673
Hizmet Binasi,Bina,001-Kucukcekmece Evde Saglik,KÜÇÜKÇEKMECE,28.794014,41.034516
Hizmet Binasi,Bina,001-Kucukcekmece Istihdam Ofisi,KÜÇÜKÇEKMECE,28.790419,40.988251
Hizmet Binasi,Bina,ISADEM-Kucukcekmece,KÜÇÜKÇEKMECE,28.7941,41.034466
Hizmet Binasi,Bina,METRO-M4 Maltepe,MALTEPE,29.138642,40.935832
Hizmet Binasi,Bina,001-Maltepe Orhangazi Parki Kamusal Alan Sefligi,MALTEPE,29.117383,40.926061
Hizmet Binasi,Bina,ISKI-Pendik,PENDİK,29.270287,40.864451
Hizmet Binasi,Bina,ISADEM-Pendik,PENDİK,29.261954,40.876801
Hizmet Binasi,Bina,ISADEM-Sancaktepe,SANCAKTEPE,29.230252,41.005278
Hizmet Binasi,Bina,ISKI-Sancaktepe,SANCAKTEPE,29.223173,40.986875
Hizmet Binasi,Bina,001-Sancaktepe Istihdam Ofisi,SANCAKTEPE,29.233057,40.978484
Hizmet Binasi,Bina,067-Sancaktepe Ilhan Varank Hastanesi,SANCAKTEPE,29.196707,41.00534
Hizmet Binasi,Bina,001-Bogazici Imar Mudurlugu,SARIYER,29.026796,41.135102
Hizmet Binasi,Bina,032-Sariyer Gumusdere Hayvan Barinagi,SARIYER,28.958005,41.255753
Hizmet Binasi,Bina,032-Sariyer Kisirkaya Hayvan Barinagi,SARIYER,28.958005,41.255753
Hizmet Binasi,Bina,ISKI-Sultanbeyli,SULTANBEYLİ,29.256777,40.974431
Hizmet Binasi,Bina,ISADEM-Sultanbeyli,SULTANBEYLİ,29.261993,40.96927
Hizmet Binasi,Bina,ISKI-Sultangazi,SULTANGAZİ,28.845969,41.11527
Hizmet Binasi,Bina,001-Sultangazi Cebeci Hayvan Bakim Evi,SULTANGAZİ,28.846368,41.125639
Hizmet Binasi,Bina,001-Sultangazi Istihdam Ofisi,SULTANGAZİ,28.905201,41.094066
Hizmet Binasi,Bina,ISKI-Silivri,SİLİVRİ,28.257405,41.070766
Hizmet Binasi,Bina,ISKI-Silivri Kamp,SİLİVRİ,28.082627,41.042723
Hizmet Binasi,Bina,001-Silivri Istihdam Ofisi,SİLİVRİ,28.247335,41.07308
Hizmet Binasi,Bina,001-Tuzla Istihdam Ofisi,TUZLA,29.308777,40.829433
Hizmet Binasi,Bina,001-Tuzla Ozgem,TUZLA,29.312042,40.82053
Hizmet Binasi,Bina,001-Tuzla Tepeoren Hayvan Bakim Evi,TUZLA,29.406197,40.964717
Hizmet Binasi,Bina,METRO-T1 Zeytinburnu,ZEYTİNBURNU,28.891406,41.001609
Hizmet Binasi,Bina,001-Zeytinburnu Acil Yardim Can Kurtarma Mudurlugu,ZEYTİNBURNU,28.888189,41.000712
Hizmet Binasi,Bina,ISKI-Catalca,ÇATALCA,28.464945,41.140074
Hizmet Binasi,Bina,067-Catalca Ilyas Cokay Devlet Hastanesi,ÇATALCA,28.466635,41.13554
Hizmet Binasi,Bina,ISADEM-Umraniye,ÜMRANİYE,29.147403,41.005223
Hizmet Binasi,Bina,ISKI-Umraniye,ÜMRANİYE,29.116408,41.020559
Hizmet Binasi,Bina,METRO-M5 Dudullu,ÜMRANİYE,29.15253,41.034232
Hizmet Binasi,Bina,001-Umraniye Hekimbasi Kati Atik,ÜMRANİYE,29.106363,41.057915
Hizmet Binasi,Bina,061-Umraniye Hekimbasi Yol Bakim,ÜMRANİYE,29.106539,41.057411
Hizmet Binasi,Bina,ISKI-Uskudar,ÜSKÜDAR,29.043781,41.017626
Hizmet Binasi,Bina,059-Selimiye Karacaahmet Mezarliklar,ÜSKÜDAR,29.024399,41.013259
Hizmet Binasi,Bina,060-Selimiye Trafik,ÜSKÜDAR,29.020952,41.008899
Hizmet Binasi,Bina,001-Uskudar Camlica Trafik Mudurlugu,ÜSKÜDAR,29.07082,41.030456
Hizmet Binasi,Bina,001-Uskudar Istihdam Ofisi,ÜSKÜDAR,29.015413,41.020625
Hizmet Binasi,Bina,001-Uskudar Selimiye Sosyal Yardim,ÜSKÜDAR,29.021273,41.009421
Hizmet Binasi,Bina,ISKI-Sile,ŞİLE,29.613389,41.179058
Hizmet Binasi,Bina,001-Harbiye Acik Hava Sahnesi Mudurluk,ŞİŞLİ,28.989826,41.045749
Hizmet Binasi,Bina,001-Istanbul Vakfi,ŞİŞLİ,28.994799,41.065514
Hizmet Binasi,Bina,001-Sisli IBB Mahalli Idareler Koordinasyon Merkezi,ŞİŞLİ,28.994942,41.065278
Hizmet Binasi,Bina,001-Sisli Istihdam Ofisi,ŞİŞLİ,28.987711,41.067478
Hizmet Binasi,Bina,ISTGUVEN-Mecidiyekoy Arsiv,ŞİŞLİ,28.994544,41.061674
Hizmet Binasi,Engelliler,003-Kadikoy Engelliler Merkezi,KADIKÖY,29.096674,40.974797
Hizmet Binasi,Hal,ISYON-Gurpinar Balik Hali,BEYLİKDÜZÜ,28.601057,40.967978
Hizmet Binasi,Itfaiye,007-Buyukada Itfaiye,ADALAR,29.137836,40.871864
Hizmet Binasi,Itfaiye,007-Bayrampasa Itfaiye,BAYRAMPAŞA,28.912467,41.03225
Hizmet Binasi,Itfaiye,007-Beylikduzu Itfaiye,BEYLİKDÜZÜ,28.643542,40.998364
Hizmet Binasi,Itfaiye,007-Beyoglu Itfaiye,BEYOĞLU,28.990577,41.048439
Hizmet Binasi,Itfaiye,007-Yenikapi Itfaiye,FATİH,28.953326,40.999688
Hizmet Binasi,Itfaiye,007-Kartal Itfaiye,KARTAL,29.195674,40.891756
Hizmet Binasi,Itfaiye,007-Kagithane Itfaiye Komuta Merkezi,KAĞITHANE,28.964904,41.08623
Hizmet Binasi,Itfaiye,007-Maltepe Itfaiye,MALTEPE,29.145264,40.929618
Hizmet Binasi,Itfaiye,007-Pendik Itfaiye,PENDİK,29.236739,40.886529
Hizmet Binasi,Itfaiye,007-Sariyer Itfaiye,SARIYER,29.0389,41.16003
Hizmet Binasi,Itfaiye,007-Sultanbeyli Itfaiye,SULTANBEYLİ,29.266939,40.969352
Hizmet Binasi,Itfaiye,007-Sultangazi Itfaiye,SULTANGAZİ,28.883964,41.103778
Hizmet Binasi,Itfaiye,007-Silivri Itfaiye,SİLİVRİ,28.255462,41.076117
Hizmet Binasi,Itfaiye,007-Umraniye Itfaiye,ÜMRANİYE,29.127973,41.016167
Hizmet Binasi,Itfaiye,007-Cengelkoy Itfaiye,ÜSKÜDAR,29.07622,41.04509
Hizmet Binasi,Itfaiye,007-Sisli Itfaiye,ŞİŞLİ,28.966362,41.058087
Hizmet Binasi,PTM,PDM-Fatih,FATİH,28.95695,41.015825
Hizmet Binasi,Zabita,009-Gurpinar Sahil Zabita,BEYLİKDÜZÜ,28.59965,40.968121
Hizmet Binasi,Zabita,009-Kadikoy Iskele Meydani Zabita Karakolu,KADIKÖY,29.021249,40.991059
Hizmet Binasi,Zabita,009-Uskudar Sahil Zabita Karakolu,ÜSKÜDAR,29.015496,41.027875
Ismek,Ismek,ISMEK-Davutpasa,ESENLER,28.898298,41.019966
Ismek,Ismek,ISMEK-Sefakoy,KÜÇÜKÇEKMECE,28.794919,41.005026
Ismek,Ismek,ISMEK-Mecidiyekoy,ŞİŞLİ,28.997405,41.067238
Koyler,Koy,070-Arnavutkoy Baklali Koyu Meydan,ARNAVUTKÖY,28.653696,41.258716
Koyler,Koy,070-Arnavutkoy Balaban Koyu Meydan,ARNAVUTKÖY,28.612294,41.310704
Koyler,Koy,070-Arnavutkoy Boyalik Koyu Meydan,ARNAVUTKÖY,28.627572,41.262495
Koyler,Koy,070-Arnavutkoy Hacimasli Koyu Meydan,ARNAVUTKÖY,28.712386,41.155591
Koyler,Koy,070-Arnavutkoy Karaburun Koyu Meydan,ARNAVUTKÖY,28.683474,41.346637
Koyler,Koy,070-Arnavutkoy Tayakadin Koyu Meydan,ARNAVUTKÖY,28.690814,41.270369
Koyler,Koy,070-Arnavutkoy Yassioren Koyu Meydan,ARNAVUTKÖY,28.597785,41.235906
Koyler,Koy,070-Arnavutkoy Yenikoy Meydan,ARNAVUTKÖY,28.722738,41.316833
Koyler,Koy,070-Beykoz Alibahadir Koyu Meydan,BEYKOZ,29.203009,41.179667
Koyler,Koy,070-Beykoz Bozhane Koyu Meydan,BEYKOZ,29.271346,41.163928
Koyler,Koy,070-Beykoz Ishakli Koyu Meydan,BEYKOZ,29.302702,41.139651
Koyler,Koy,070-Beykoz Ogumce Koyu Meydan,BEYKOZ,29.267207,41.16536
Koyler,Koy,070-Beykoz Poyrazkoy Meydan,BEYKOZ,29.131822,41.207132
Koyler,Koy,070-Eyupsultan Akpinar Koyu Meydan,EYÜPSULTAN,28.809794,41.279355
Koyler,Koy,070-Eyupsultan Ciftalan Koyu Meydan,EYÜPSULTAN,28.909077,41.254134
Koyler,Koy,070-Eyupsultan Ihsaniye Koyu Meydan,EYÜPSULTAN,28.808566,41.240207
Koyler,Koy,070-Eyupsultan Isiklar Koyu Meydan,EYÜPSULTAN,28.826256,41.22721
Koyler,Koy,070-Eyupsultan Pirincci Koyu Meydan,EYÜPSULTAN,28.850713,41.164012
Koyler,Koy,070-Pendik Gocbeyli Koyu Meydan,PENDİK,29.458491,40.968994
Koyler,Koy,070-Pendik Kurna Koyu Meydan,PENDİK,29.33506,40.95537
Koyler,Koy,070-Sariyer Kisirkaya Koyu Meydan,SARIYER,28.97661,41.252013
Koyler,Koy,070-Silivri Akoren Koyu Meydan,SİLİVRİ,28.337544,41.198318
Koyler,Koy,070-Silivri Bekirli Koyu Meydan,SİLİVRİ,28.30014,41.226116
Koyler,Koy,070-Silivri Beyciler Koyu Meydan,SİLİVRİ,28.113496,41.234102
Koyler,Koy,070-Silivri Buyuk Sinekli Koyu Meydan,SİLİVRİ,28.189448,41.228679
Koyler,Koy,070-Silivri Buyukkilicli Koyu Meydan,SİLİVRİ,28.189703,41.164155
Koyler,Koy,070-Silivri Celtik Koyu Meydan,SİLİVRİ,28.117773,41.110483
Koyler,Koy,070-Silivri Fener Koyu Meydan,SİLİVRİ,28.237414,41.149287
Koyler,Koy,070-Silivri Sayalar Koyu Meydan,SİLİVRİ,28.1745,41.316604
Koyler,Koy,070-Silivri Seymen Koyu Meydan,SİLİVRİ,28.170389,41.156539
Koyler,Koy,070-Catalca Aydinlar Koyu Meydan,ÇATALCA,28.205578,41.374737
Koyler,Koy,070-Catalca Basak Koyu Meydan,ÇATALCA,28.445821,41.332011
Koyler,Koy,070-Catalca Canakca Koyu Meydan,ÇATALCA,28.495407,41.246236
Koyler,Koy,070-Catalca Celep Koyu Meydan,ÇATALCA,28.500052,41.364495
Koyler,Koy,070-Catalca Dagyenice Koyu Meydan,ÇATALCA,28.48331,41.271517
Koyler,Koy,070-Catalca Elbasan Koyu Meydan,ÇATALCA,28.415153,41.138722
Koyler,Koy,070-Catalca Gokceali Koyu Meydan,ÇATALCA,28.445527,41.200913
Koyler,Koy,070-Catalca Gumuspinar Koyu Meydan,ÇATALCA,28.285581,41.314509
Koyler,Koy,070-Catalca Hisarbeyli Koyu Meydan,ÇATALCA,28.474022,41.368506
Koyler,Koy,070-Catalca Ihsaniye Koyu Meydan,ÇATALCA,28.35884,41.254568
Koyler,Koy,070-Catalca Kabakca Koyu Meydan,ÇATALCA,28.369856,41.22845
Koyler,Koy,070-Catalca Kestanelik Koyu Meydan,ÇATALCA,28.494762,41.234558
Koyler,Koy,070-Catalca Orcunlu Koyu Meydan,ÇATALCA,28.524181,41.223726
Koyler,Koy,070-Catalca Orencik Koyu Meydan,ÇATALCA,28.482496,41.329341
Koyler,Koy,070-Catalca Ormanli Koyu Meydan,ÇATALCA,28.453073,41.392387
Koyler,Koy,070-Catalca Subasi Koyu Meydan,ÇATALCA,28.455023,41.222261
Koyler,Koy,070-Catalca Yali Koyu Meydan,ÇATALCA,28.295847,41.477258
Koyler,Koy,070-Catalca Yazlik Koyu Meydan,ÇATALCA,28.51748,41.294548
Koyler,Koy,070-Cekmekoy Huseyinli Koyu Meydan,ÇEKMEKÖY,29.292745,41.119306
Koyler,Koy,070-Cekmekoy Kocullu Koyu Meydan,ÇEKMEKÖY,29.348437,41.077529
Koyler,Koy,070-Sile Ahmetli Koyu Meydan,ŞİLE,29.579219,41.148671
Koyler,Koy,070-Sile Akcakese Koyu Meydan,ŞİLE,29.718188,41.142847
Koyler,Koy,070-Sile Alacali Koyu Meydan,ŞİLE,29.456303,41.183378
Koyler,Koy,070-Sile Bickidere Koyu Meydan,ŞİLE,29.475816,41.069516
Koyler,Koy,070-Sile Bozgoca Koyu Meydan,ŞİLE,29.77617,41.14148
Koyler,Koy,070-Sile Catakli Koyu Meydan,ŞİLE,29.798666,41.075095
Koyler,Koy,070-Sile Cayirbasi Koyu Meydan,ŞİLE,29.648459,41.149635
Koyler,Koy,070-Sile Cengilli Koyu Meydan,ŞİLE,29.672895,41.004731
Koyler,Koy,070-Sile Darlik Koyu Meydan,ŞİLE,29.575315,41.043354
Koyler,Koy,070-Sile Degirmencayiri Koyu Meydan,ŞİLE,29.663771,40.978309
Koyler,Koy,070-Sile Dogancili Koyu Meydan,ŞİLE,29.439728,41.191081
Koyler,Koy,070-Sile Erenler Koyu Meydan,ŞİLE,29.564629,41.120763
Koyler,Koy,070-Sile Esenceli Koyu Meydan,ŞİLE,29.392389,41.053526
Koyler,Koy,070-Sile Goce Koyu Meydan,ŞİLE,29.853596,41.107739
Koyler,Koy,070-Sile Gokmasli Koyu Meydan,ŞİLE,29.804441,41.097727
Koyler,Koy,070-Sile Hacilli Koyu Meydan,ŞİLE,29.769846,41.046526
Koyler,Koy,070-Sile Hasanli Koyu Meydan,ŞİLE,29.666276,41.016866
Koyler,Koy,070-Sile Isakoyu Meydan,ŞİLE,29.824386,41.107141
Koyler,Koy,070-Sile Kabakoz Koyu Meydan,ŞİLE,29.688594,41.143287
Koyler,Koy,070-Sile Kadikoy Meydan,ŞİLE,29.905833,41.111408
Koyler,Koy,070-Sile Karabeyli Koyu Meydan,ŞİLE,29.734973,41.10611
Koyler,Koy,070-Sile Karacakoy Meydan,ŞİLE,29.769514,41.1508
Koyler,Koy,070-Sile Kervansaray Koyu Meydan,ŞİLE,29.455337,41.072875
Koyler,Koy,070-Sile Kizilca Koyu Meydan,ŞİLE,29.544324,41.15681
Koyler,Koy,070-Sile Korucu Koyu Meydan,ŞİLE,29.567914,41.123402
Koyler,Koy,070-Sile Kurfalli Koyu Meydan,ŞİLE,29.825808,41.133994
Koyler,Koy,070-Sile Mesrutiyet Koyu Meydan,ŞİLE,29.562186,41.158793
Koyler,Koy,070-Sile Orucoglu Koyu Meydan,ŞİLE,29.392389,41.053526
Koyler,Koy,070-Sile Osman Koyu Meydan,ŞİLE,29.732117,41.082239
Koyler,Koy,070-Sile Sahil Koyu Meydan,ŞİLE,29.413282,41.202681
Koyler,Koy,070-Sile Sofular Koyu Meydan,ŞİLE,29.491901,41.172388
Koyler,Koy,070-Sile Teke Koyu Meydan,ŞİLE,29.664824,41.069104
Koyler,Koy,070-Sile Uvezli Koyu Meydan,ŞİLE,29.392389,41.053526
Koyler,Koy,070-Sile Yaka Koyu Meydan,ŞİLE,29.653617,40.992279
Kultur Merkezi,KulturMerkezi,012-Ebubekir Kultur Merkezi,BAĞCILAR,28.869792,41.033293
Kultur Merkezi,KulturMerkezi,Avrasya Gosteri Merkezi-YK,FATİH,28.943655,40.998944
Kultur Merkezi,KulturMerkezi,012-Ahmed Yesevi Kultur Merkezi,SULTANGAZİ,28.876702,41.097747
Kultur Merkezi,KulturMerkezi,012-Topkapi Panaroma 1453,ZEYTİNBURNU,28.920425,41.018165
Kultur Merkezi,KulturMerkezi,013-Musahipzade Celal Sahnesi,ÜSKÜDAR,29.012987,41.019524
Kutuphane,Kutuphane,014-Taksim Ataturk Kutuphanesi,BEYOĞLU,28.989542,41.039082
Kutuphane,Kutuphane,014-Muallim Cevdet Kutuphanesi,KARTAL,29.195645,40.886508
Kutuphane,Kutuphane,014-IBB Sariyer Kutuphanesi,SARIYER,29.039832,41.147229
Kutuphane,Kutuphane,014-Prof.Dr. Ilhan Varank Kutuphanesi,SULTANBEYLİ,29.266941,40.969123
Kutuphane,Kutuphane,014-Idris Gulluce Kutuphanesi,TUZLA,29.303059,40.850079
Kutuphane,Kutuphane,014-Ahmet Suheyl Unver Kutuphanesi,ÜMRANİYE,29.104938,41.025222
Kutuphane,Kutuphane,014-Nail Nimet Bayraktar Kutuphanesi,ÜMRANİYE,29.105516,41.017006
Otobus Duragi,Durak,038-Avcilar Cihangir Otobus Duragi,AVCILAR,28.714128,40.991049
Otobus Duragi,Durak,038-Avcilar Otobus Duragi,AVCILAR,28.724431,40.984091
Otobus Duragi,Durak,038-Avcilar Parseller Otobus Duragi,AVCILAR,28.705535,40.995034
Otobus Duragi,Durak,038-Avcilar Sukrubey Otobus Duragi,AVCILAR,28.731161,40.980151
Otobus Duragi,Durak,038-Bahcelievler Otobus Duragi,BAHÇELİEVLER,28.863886,40.995459
Otobus Duragi,Durak,038-Yenibosna Otobus Duragi,BAHÇELİEVLER,28.835378,40.992755
Otobus Duragi,Durak,038-Basaksehir Sahintepe Turker Sokak Otobus Duragi,BAŞAKŞEHİR,28.72489,41.072225
Otobus Duragi,Durak,038-Haramidere Otobus Duragi,BEYLİKDÜZÜ,28.673503,41.006149
Otobus Duragi,Durak,038-Eyupsultan Otakcilar Otobus Duragi,EYÜPSULTAN,28.936279,41.037368
Otobus Duragi,Durak,038-Uzuncayir Metrobus Duragi Girisi,KADIKÖY,29.055545,40.998452
Otobus Duragi,Durak,038-Okmeydani Dereyolu Otobus Duragi,KAĞITHANE,28.969469,41.063977
Otobus Duragi,Durak,038-Kucukcekmece Cennet Otobus Duragi,KÜÇÜKÇEKMECE,28.786787,40.985936
Otobus Duragi,Durak,038-Kucukcekmece E5 Otobus Duragi,KÜÇÜKÇEKMECE,28.768974,40.986696
Otobus Duragi,Durak,038-Haciosman Metro Otobus Duragi,SARIYER,29.029919,41.140339
Otobus Duragi,Durak,038-Sariyer Beyaz Park Otobus Duragi,SARIYER,29.050237,41.163626
Otobus Duragi,Durak,038-Cevizlibag Otobus Duragi,ZEYTİNBURNU,28.91099,41.016008
Otobus Duragi,Durak,038-Altunizade Metrobus Duragi,ÜSKÜDAR,29.047689,41.022344
Otobus Duragi,Durak,038-Baglarbasi TKM Diregi,ÜSKÜDAR,29.035358,41.021241
Otobus Duragi,Durak,038-Buyukdere Caddesi Fabrikalar Otobus Duragi,ŞİŞLİ,29.011473,41.080041
Sosyal Tesis,Sosyal,024-Avcilar Sosyal Tesisleri,AVCILAR,28.743816,40.976437
Sosyal Tesis,Sosyal,024-Beykoz Koru Sosyal Tesisleri,BEYKOZ,29.094437,41.131533
Sosyal Tesis,Sosyal,024-Beykoz Sosyal Tesisleri,BEYKOZ,29.086179,41.113168
Sosyal Tesis,Sosyal,024-Arnavutkoy Sosyal Tesisleri,BEŞİKTAŞ,29.044642,41.067514
Sosyal Tesis,Sosyal,024-Kucukcekmece Selcuklu Sosyal Tesisleri,KÜÇÜKÇEKMECE,28.796872,41.044715
Sosyal Tesis,Sosyal,024-Gozdagi Sosyal Tesisleri,PENDİK,29.253643,40.890612
Sosyal Tesis,Sosyal,024-Umraniye Tantavi Sosyal Tesisleri,ÜMRANİYE,29.083366,41.027001
Spor Tesisi,Spor,025-Florya Spor Tesisi,BAKIRKÖY,28.791041,40.975577
Spor Tesisi,Spor,025-Senlikkoy IBB Stadi,BAKIRKÖY,28.791746,40.980753
Spor Tesisi,Spor,025-Beyoglu Spor Kompleksi,BEYOĞLU,28.96927,41.02979
Spor Tesisi,Spor,025-Tevfik Aydeniz Spor Tesisi,EYÜPSULTAN,28.938345,41.081489
Spor Tesisi,Spor,025-Sefakoy Yuzme Havuzu,KÜÇÜKÇEKMECE,28.792729,40.997662
Spor Tesisi,Spor,025-Kurtkoy Spor Salonu,PENDİK,29.320377,40.93096
Spor Tesisi,Spor,025-Sultangazi 75. Yil Yuzme Havuzu,SULTANGAZİ,28.902155,41.095541
Spor Tesisi,Spor,025-Tuzla Kafkale Spor Tesisleri,TUZLA,29.299235,40.833193
Spor Tesisi,Spor,025-Silivrikapi Buz Pisti,ZEYTİNBURNU,28.922089,41.003475
Spor Tesisi,Spor,025-Cekmekoy Spor Kompleksi,ÇEKMEKÖY,29.185173,41.023395
Tramvay Istasyonu,Istasyon,METRO T4-SAGMALCILAR,BAYRAMPAŞA,28.907544,41.056851
Tramvay Istasyonu,Istasyon,METRO T4-DEMIRKAPI,EYÜPSULTAN,28.923421,41.03697
Tramvay Istasyonu,Istasyon,METRO T5-ALIBEYKOY CEP OTOGARI,EYÜPSULTAN,28.943522,41.086875
Tramvay Istasyonu,Istasyon,METRO T5-ALIBEYKOY MERKEZ,EYÜPSULTAN,28.945738,41.07354
Tramvay Istasyonu,Istasyon,METRO T5-ALIBEYKOY METRO ISTASYONU,EYÜPSULTAN,28.949455,41.078172
Tramvay Istasyonu,Istasyon,METRO T5-AYVANSARAY,EYÜPSULTAN,28.943774,41.039619
Tramvay Istasyonu,Istasyon,METRO T5-EYUPSULTAN DEVLET HASTANESI,EYÜPSULTAN,28.941247,41.05676
Tramvay Istasyonu,Istasyon,METRO T5-EYUPSULTAN-TELEFERIK,EYÜPSULTAN,28.935165,41.05043
Tramvay Istasyonu,Istasyon,METRO T5-FESHANE,EYÜPSULTAN,28.937944,41.045545
Tramvay Istasyonu,Istasyon,METRO T5-SILAHTARAGA MAHALLESI,EYÜPSULTAN,28.942889,41.064783
Tramvay Istasyonu,Istasyon,METRO T1-GULHANE,FATİH,28.97821,41.011816
Tramvay Istasyonu,Istasyon,METRO T1-EMINONU,FATİH,28.973529,41.017514
Tramvay Istasyonu,Istasyon,METRO T5-BALAT,FATİH,28.948032,41.034085
Tramvay Istasyonu,Istasyon,METRO T5-CIBALI,FATİH,28.960271,41.024225
Tramvay Istasyonu,Istasyon,METRO T5-FENER,FATİH,28.951463,41.030498
Tramvay Istasyonu,Istasyon,METRO T5-UNIVERSITE,FATİH,28.943408,41.068193
Tramvay Istasyonu,Istasyon,METRO T4-BOSNA CUKURCESME,GAZİOSMANPAŞA,28.902185,41.061599
Tramvay Istasyonu,Istasyon,METRO T1-GUNESTEPE,GÜNGÖREN,28.86084,41.029178
Tramvay Istasyonu,Istasyon,METRO T1-SOGANLI,GÜNGÖREN,28.867294,41.020766
Tramvay Istasyonu,Istasyon,METRO T1-MEHMETAKIF,GÜNGÖREN,28.881607,41.006026
Tramvay Istasyonu,Istasyon,METRO T4-50.YIL BASTABYA,SULTANGAZİ,28.86757,41.087449
Tramvay Istasyonu,Istasyon,METRO T4-CEBECI,SULTANGAZİ,28.858182,41.111189
Tramvay Istasyonu,Istasyon,METRO T4-CUMHURIYET,SULTANGAZİ,28.872379,41.083731
Tramvay Istasyonu,Istasyon,METRO T4-HACISUKRU,SULTANGAZİ,28.864164,41.09205
Tramvay Istasyonu,Istasyon,METRO T4-KIPTAS VENEZIA,SULTANGAZİ,28.874678,41.081277
Tramvay Istasyonu,Istasyon,METRO T4-MESCIDI SELAM,SULTANGAZİ,28.851666,41.11588
Tramvay Istasyonu,Istasyon,METRO T4-SULTANCIFTLIGI,SULTANGAZİ,28.860871,41.105707
Tramvay Istasyonu,Istasyon,METRO T4-YENIMAHALLE,SULTANGAZİ,28.862944,41.100253
Tramvay Istasyonu,Istasyon,METRO T1-AKSEMSETTIN,ZEYTİNBURNU,28.90742,41.004159
Tramvay Istasyonu,Istasyon,METRO T1-MERKEZEFENDI,ZEYTİNBURNU,28.909518,41.010555
Tramvay Istasyonu,Istasyon,METRO T1-ZEYTINBURNU,ZEYTİNBURNU,28.890222,41.001486
Tramvay Istasyonu,Istasyon,METRO T4-FETIHKAPI,ZEYTİNBURNU,28.86757,41.087449
Tramvay Istasyonu,Istasyon,METRO T4-TOPKAPI,ZEYTİNBURNU,28.929229,41.025586
Turistik Mekan,Turistik,028-Miniaturk,BEYOĞLU,28.948654,41.059908
Turistik Mekan,Turistik,028-Sultanahmet Camii,FATİH,28.976958,41.005342
Turistik Mekan,Turistik,056-Emirgan Korusu Pembe Kosk,SARIYER,29.056974,41.109713
Yesil Alan,Park,031-Bagcilar Trafik Egitim Parki,BAĞCILAR,28.822116,41.050023
Yesil Alan,Park,031-Sarachane 50.Yil Parki,FATİH,28.956406,41.014892
Yesil Alan,Park,031-Kucukcekmece Ataturk Parki,KÜÇÜKÇEKMECE,28.79775,40.999036
Yesil Alan,Park,031-Kucukyali Sahil Parki,MALTEPE,29.105641,40.94411
Yesil Alan,Park,031-Sancaktepe Kent Parki,SANCAKTEPE,29.229558,40.992531
Yesil Alan,Park,031-Sultanbeyli Golet Semt Parki,SULTANBEYLİ,29.276859,40.952531
Yesil Alan,Park,031-Zeytinburnu Cirpici Sehir Parki,ZEYTİNBURNU,28.888716,41.000016
Yesil Alan,ParkBahceler,032-Florya Park ve Bahceler,BAKIRKÖY,28.78906,40.976924
Yesil Alan,ParkBahceler,032-Beylikduzu Park ve Bahceler,BEYLİKDÜZÜ,28.645368,40.996157
Yesil Alan,ParkBahceler,032-Eyupsultan Halic Park ve Bahceler,EYÜPSULTAN,28.945631,41.057856
Yesil Alan,ParkBahceler,032-Gaziosmanpasa Park ve Bahceler,GAZİOSMANPAŞA,28.876895,41.1035
Yesil Alan,ParkBahceler,032-Kartal Park ve Bahceler,KARTAL,29.201281,40.884943
Yesil Alan,ParkBahceler,032-Kucukcekmece Park ve Bahceler,KÜÇÜKÇEKMECE,28.773737,41.007192
Yesil Alan,ParkBahceler,032-Gozdagi Park ve Bahceler,PENDİK,29.252053,40.892396
Yesil Alan,ParkBahceler,032-Sariyer Park ve Bahceler,SARIYER,29.030854,41.138958
Yesil Alan,ParkBahceler,032-Emirgan Korusu Park ve Bahceler,SARIYER,29.052015,41.106615
Yesil Alan,ParkBahceler,032-Sultanbeyli Park ve Bahceler,SULTANBEYLİ,29.275647,40.953196
Yesil Alan,ParkBahceler,032-Kazlicesme Bitki Sagligi Sefligi,ZEYTİNBURNU,28.920379,40.990971
Yesil Alan,ParkBahceler,032-Uskudar Park ve Bahceler,ÜSKÜDAR,29.02601,41.032315
Yesil Alan,ParkBahceler,032-Uskudar Park ve Bahceler Dogancilar Parki,ÜSKÜDAR,29.013934,41.018927
Diger,AnadoluMeydan,018-Beykoz Meydan,BEYKOZ,29.09185,41.134104
Diger,AnadoluMeydan,018-Kadikoy Meydan,KADIKÖY,29.023992,40.99213
Diger,AnadoluMeydan,018-Maltepe Meydan,MALTEPE,29.131164,40.924939
Diger,AnadoluMeydan,018-Umraniye Cakmak Koprusu,ÜMRANİYE,29.121328,41.020929
Diger,AnadoluMeydan,018-Umraniye Meydan,ÜMRANİYE,29.096935,41.025962
Diger,AnadoluMeydan,018-15 Temmuz Sehitler Aniti,ÜSKÜDAR,29.042553,41.036865
Diger,AnadoluMeydan,018-Akasya AVM Iletisim Noktasi,ÜSKÜDAR,29.054421,41.000736
Diger,AvrupaMeydan,018-Avcilar Meydan,AVCILAR,28.722295,40.983197
Diger,AvrupaMeydan,018-Sirinevler Meydan,BAHÇELİEVLER,28.845483,40.99203
Diger,AvrupaMeydan,018-Atakoy Ugur Mumcu Bulvari,BAKIRKÖY,28.848893,40.985851
Diger,AvrupaMeydan,018-Beylikduzu Meydan,BEYLİKDÜZÜ,28.650483,41.01171
Diger,AvrupaMeydan,018-Ortakoy Meydan,BEŞİKTAŞ,29.025741,41.047446
Diger,AvrupaMeydan,018-Esenler Meydan,ESENLER,28.881976,41.038348
Diger,AvrupaMeydan,018-Sultanahmet Meydan,FATİH,28.977784,41.00683
Diger,AvrupaMeydan,018-Yenikapi Etkinlik Alani,FATİH,28.951178,41.00012
Diger,AvrupaMeydan,018-Gungoren Kuyulu Camii,GÜNGÖREN,28.867085,41.013874
Diger,AvrupaMeydan,018-Caglayan Meydan,KAĞITHANE,28.978885,41.069605
Diger,AvrupaMeydan,018-Sariyer Meydan,SARIYER,29.057516,41.167183
Diger,AvrupaMeydan,018-Sultangazi Meydan,SULTANGAZİ,28.862245,41.104596
Diger,AvrupaMeydan,018-Topkapi Ulubatli Meydan,ZEYTİNBURNU,28.929394,41.024776
Diger,AvrupaMeydan,018-Zeytinburnu 58. Bulvar,ZEYTİNBURNU,28.9037,40.990178
Diger,AvrupaMeydan,018-Zeytinburnu Meydan,ZEYTİNBURNU,28.903993,40.994532
Diger,AvrupaMeydan,018-Catalca Meydan,ÇATALCA,28.460998,41.144021
Diger,AvrupaMeydan,018-Sisli Camii Onu,ŞİŞLİ,28.987285,41.060332
Diger,Arge,066-Deneyap Esenyurt Kultur Merkezi,ESENYURT,28.683162,41.028442
Diger,Arge,066-Deneyap Alemdag Atolyesi,ÜMRANİYE,29.237803,41.053157
Diger,Arge,066-Deneyap Haldun Alagas Spor Salonu,ÜMRANİYE,29.10493,41.025024
Diger,Cadde,017-Atasehir 3001 Caddesi,ATAŞEHİR,29.093149,41.003777
Diger,Cadde,017-Avcilar Marmara Caddesi,AVCILAR,28.721812,40.980073
Diger,Cadde,017-Beyoglu Istiklal Caddesi,BEYOĞLU,28.977381,41.033458
Diger,Cadde,017-Beyoglu Gumussuyu Caddesi,BEYOĞLU,28.990125,41.036614
Diger,Cadde,017-Alibeykoy Sevinc Caddesi,EYÜPSULTAN,28.947635,41.074752
Diger,Cadde,017-Beyazit Divan Yolu Caddesi,FATİH,28.966282,41.009331
Diger,Cadde,017-Beyazit Ordu Caddesi,FATİH,28.965208,41.009485
Diger,Cadde,017-Beyazit Yeniceriler Caddesi,FATİH,28.966779,41.009197
Diger,Cadde,017-Cemberlitas Nuru Osmaniye Caddesi,FATİH,28.97256,41.010197
Diger,Cadde,017-Eyupsultan Fahri Koruturk Caddesi,FATİH,28.932298,41.048105
Diger,Cadde,017-Eyupsultan Yavedud Caddesi,FATİH,28.938361,41.041633
Diger,Cadde,017-Fatih Turgut Ozal Millet Caddesi,FATİH,28.938473,41.012684
Diger,Cadde,017-Gaziosmanpasa Ordu Caddesi,GAZİOSMANPAŞA,28.919846,41.058001
Diger,Cadde,017-Besyuzevler Yuruyus Yolu,GAZİOSMANPAŞA,28.897455,41.068858
Diger,Cadde,017-Maltepe Gulsuyu Fevzi Cakmak Caddesi,MALTEPE,29.15759,40.927778
Diger,Cadde,017-Sariyer Haydar Aliyev Caddesi,SARIYER,29.055617,41.143438
Diger,Cadde,017-Silivri Mustafa Oguzhan Sokak,SİLİVRİ,28.241423,41.075487
Diger,Cadde,017-Silivri Baskomutan Caddesi,SİLİVRİ,28.250169,41.073241
Diger,Cadde,017-Zeytinburnu 10.Yil Caddesi Belgradkapi,ZEYTİNBURNU,28.919932,40.999855
Diger,Cadde,017-Zeytinburnu 10.Yil Caddesi Silivrikapi,ZEYTİNBURNU,28.921261,41.006122
Diger,Cadde,017-Cekmekoy Sultan Murat Caddesi,ÇEKMEKÖY,29.229406,41.029472
Diger,Cadde,017-Uskudar Ahmediye Dr. Fahri Atabey Caddesi,ÜSKÜDAR,29.016395,41.021765
Diger,Cadde,017-Uskudar Baglarbasi Nuhkuyusu Caddesi,ÜSKÜDAR,29.030035,41.016746
Diger,Cadde,017-Uskudar Cengelkoy Caddesi,ÜSKÜDAR,29.053364,41.050219
Diger,Cadde,017-Uskudar Cengelkoy Yaliboyu Caddesi,ÜSKÜDAR,29.051149,41.046827
Diger,Cadde,017-Uskudar Pasalimani Caddesi,ÜSKÜDAR,29.024607,41.033083
Diger,Cadde,017-Sisli Abide-i Hurriyet Caddesi,ŞİŞLİ,28.986104,41.066846
Diger,Garaj,IETT Garaj-Avcilar-In,AVCILAR,28.434854,40.591879
Diger,Garaj,IETT Garaj-Avcilar-Out,AVCILAR,28.434854,40.591879
Diger,Garaj,IETT Garaj-Sahinkaya-In,BEYKOZ,29.054419,41.082985
Diger,Garaj,IETT Garaj-Sahinkaya-Out,BEYKOZ,29.054419,41.082985
Diger,Garaj,IETT Garaj-Topkapi-In,FATİH,28.554767,41.011339
Diger,Garaj,IETT Garaj-Topkapi-Out,FATİH,28.554767,41.011339
Diger,Garaj,IETT Garaj-Yunus-In,KARTAL,29.122541,40.532324
Diger,Garaj,IETT Garaj-Yunus-Out,KARTAL,29.122541,40.532324
Diger,Garaj,IETT Garaj-Kagithane-In,KAĞITHANE,28.573054,41.03566
Diger,Garaj,IETT Garaj Kurtkoy_in,PENDİK,29.190328,40.554664
Diger,Garaj,IETT Garaj-Kurtkoy-Out,PENDİK,29.190328,40.554664
Diger,Garaj,IETT Garaj-Sarigazi-In,SANCAKTEPE,29.120494,41.002293
Diger,Garaj,IETT Garaj-Sarigazi-Out,SANCAKTEPE,29.120494,41.002293
Diger,Peron,IETT_Peron_Kadikoy_Indoor,KADIKÖY,29.012772,40.593731
Diger,TanitimOfisi,001-IBB Sutluce Tanitim Merkezi,BEYOĞLU,28.949065,41.05777

